City_ID,City,Lat,Lng,Max Temp,Humidity,Cloudiness,Wind Speed,Country,Date
0,pokrovsk,48.282,37.1758,283.79,75,75,6.01,UA,1680979022
1,vila velha,-20.3297,-40.2925,304.12,79,40,6.69,BR,1680978897
2,narsaq,60.9167,-46.05,277.27,78,100,1.39,GL,1680978883
3,beyneu,45.3167,55.2,287.34,57,45,5.12,KZ,1680979023
4,asau,46.4333,26.4,277.66,94,78,1.13,RO,1680979023
5,abu kamal,34.4506,40.9171,295.02,23,100,3.5,SY,1680979023
6,rikitea,-23.1203,-134.9692,297.79,63,17,7.22,PF,1680978834
7,new glasgow,45.5834,-62.6486,273.03,48,79,6.6,CA,1680978895
8,liwonde,-15.0506,35.2035,293.84,96,57,0.96,MW,1680979024
9,hadejia,12.4498,10.0444,306.77,10,9,3.06,NG,1680979024
10,boende,-0.2167,20.8667,295.1,98,100,0.62,CD,1680979025
11,huilong,31.8111,121.655,282.0,65,0,3.8,CN,1680979025
12,georgetown,5.4112,100.3354,301.12,84,20,2.06,MY,1680978846
13,port alfred,-33.5906,26.891,291.03,97,99,2.47,ZA,1680978844
14,pionerskiy,54.9508,20.2275,278.06,98,100,2.72,RU,1680979025
15,salcininkai,54.3,25.3833,283.62,91,100,2.85,LT,1680979026
16,bhikangaon,21.8667,75.95,301.8,36,17,1.88,IN,1680979026
17,ballina,-28.8667,153.5667,289.59,67,0,4.45,AU,1680979026
18,kauhajoki,62.4333,22.1833,276.14,75,5,0.83,FI,1680979026
19,jiazi,22.8779,116.067,290.39,61,40,7.23,CN,1680979027
20,albany,42.6001,-73.9662,283.04,27,8,2.68,US,1680978599
21,eastlake,41.6539,-81.4504,286.89,47,0,5.14,US,1680978915
22,hilo,19.7297,-155.09,295.43,84,100,2.06,US,1680978657
23,vila do maio,15.1333,-23.2167,297.59,74,100,7.87,CV,1680979027
24,ushuaia,-54.8,-68.3,279.96,76,75,5.66,AR,1680978840
25,punta arenas,-53.15,-70.9167,279.21,81,75,10.29,CL,1680978631
26,santana do livramento,-30.8908,-55.5328,296.53,52,99,3.46,BR,1680979028
27,kichmengskiy gorodok,59.9816,45.7854,270.02,94,9,1.13,RU,1680979028
28,hermanus,-34.4187,19.2345,287.48,67,100,1.58,ZA,1680978836
29,marana,32.4367,-111.2254,301.32,13,12,0.0,US,1680978871
30,dumai,1.6833,101.45,296.67,96,99,1.1,ID,1680978960
31,tilichiki,60.4667,166.1,258.3,96,100,3.93,RU,1680978793
32,atuona,-9.8,-139.0333,300.4,66,0,6.73,PF,1680978840
33,radviliskis,55.8167,23.5333,282.18,93,0,1.03,LT,1680979029
34,kaitangata,-46.2817,169.8464,280.44,88,100,4.38,NZ,1680978932
35,xining,36.6167,101.7667,278.62,42,100,0.43,CN,1680978928
36,poso,-1.3959,120.7524,298.0,78,85,1.04,ID,1680979030
37,yellowknife,62.456,-114.3525,277.44,65,20,2.06,CA,1680978846
38,okhotsk,59.3833,143.3,254.24,94,10,3.68,RU,1680978870
39,alghero,40.5589,8.3181,285.2,71,20,1.03,IT,1680979031
40,abha,18.2164,42.5053,290.29,63,40,3.09,SA,1680978951
41,zhigansk,66.7697,123.3711,241.65,100,46,0.36,RU,1680979031
42,banff,51.1762,-115.5698,283.72,39,100,5.66,CA,1680979031
43,geraldton,-28.7667,114.6,286.38,88,0,3.6,AU,1680978643
44,chuy,-33.6971,-53.4616,294.57,62,84,3.76,UY,1680978867
45,castro,-24.7911,-50.0119,292.53,86,100,1.63,BR,1680978871
46,broome,42.2506,-75.833,283.71,32,0,1.79,US,1680978959
47,qaqortoq,60.7167,-46.0333,272.84,79,100,0.94,GL,1680979032
48,college,64.8569,-147.8028,262.71,64,75,1.54,US,1680978938
49,puksoozero,62.5903,40.6066,270.27,98,16,1.24,RU,1680979032
50,mackay,-21.15,149.2,291.31,47,68,3.58,AU,1680978993
51,viedma,-40.8135,-62.9967,298.82,48,84,5.52,AR,1680979033
52,fort nelson,58.8053,-122.7002,279.92,57,75,1.03,CA,1680978884
53,eyemouth,55.8713,-2.0901,283.28,86,10,4.78,GB,1680979033
54,yelan,50.949,43.7378,279.05,63,6,3.19,RU,1680979034
55,jamestown,42.097,-79.2353,283.72,25,0,2.06,US,1680978865
56,torbay,47.6666,-52.7314,275.03,61,75,9.77,CA,1680978628
57,boyuibe,-20.4167,-63.2833,301.77,35,13,3.07,BO,1680978951
58,vaini,-21.2,-175.2,298.24,100,40,1.54,TO,1680978834
59,busselton,-33.65,115.3333,288.48,79,100,2.8,AU,1680978834
60,abaza,52.655,90.0928,266.21,85,33,4.12,RU,1680979035
61,chokurdakh,70.6333,147.9167,248.67,93,95,2.99,RU,1680978884
62,sao filipe,14.8961,-24.4956,295.67,73,96,6.65,CV,1680978854
63,katsuura,35.1333,140.3,281.95,51,1,5.9,JP,1680978940
64,kodiak,57.79,-152.4072,271.88,43,20,7.72,US,1680978696
65,touros,-5.1989,-35.4608,300.7,82,100,4.91,BR,1680978899
66,fortuna,40.5982,-124.1573,288.67,70,100,2.24,US,1680978850
67,upernavik,72.7868,-56.1549,250.86,88,100,6.94,GL,1680978892
68,mahebourg,-20.4081,57.7,297.73,94,75,4.63,MU,1680978843
69,ternate,0.8,127.4,300.35,81,75,5.02,ID,1680979037
70,vao,-22.6667,167.4833,298.28,76,38,5.24,NC,1680978882
71,lasa,46.6166,10.7002,281.64,94,57,2.7,IT,1680978886
72,khatanga,71.9667,102.5,250.18,96,100,3.19,RU,1680978864
73,souillac,-20.5167,57.5167,296.36,94,75,4.63,MU,1680978900
74,haines junction,60.7522,-137.5108,273.12,55,100,1.54,CA,1680978894
75,dikson,73.5069,80.5464,241.12,100,15,1.44,RU,1680978790
76,hofn,64.2539,-15.2082,280.07,98,100,2.47,IS,1680979038
77,provideniya,64.3833,-173.3,249.64,88,23,1.77,RU,1680978852
78,longyearbyen,78.2186,15.6401,266.06,73,75,6.69,SJ,1680978835
79,bathsheba,13.2167,-59.5167,302.49,65,40,9.26,BB,1680978840
80,bethel,41.3712,-73.414,285.14,24,0,2.06,US,1680978853
81,tazovskiy,67.4667,78.7,243.66,94,6,3.84,RU,1680978735
82,tuktoyaktuk,69.4541,-133.0374,249.15,77,75,1.03,CA,1680978874
83,kondapalle,16.6167,80.5333,299.37,70,0,2.17,IN,1680979040
84,namibe,-15.1961,12.1522,297.44,80,100,1.47,AO,1680979040
85,imeni poliny osipenko,52.4201,136.4853,261.93,98,61,0.48,RU,1680979040
86,cape town,-33.9258,18.4232,289.38,70,40,5.14,ZA,1680978837
87,mar del plata,-38.0023,-57.5575,299.16,61,0,6.17,AR,1680978851
88,zhangye,38.9342,100.4517,283.03,15,33,2.81,CN,1680978906
89,port lincoln,-34.7333,135.8667,288.68,74,78,4.23,AU,1680978973
90,veraval,20.9,70.3667,299.28,68,1,5.55,IN,1680978900
91,salalah,17.0151,54.0924,301.2,78,40,2.57,OM,1680978841
92,cabo san lucas,22.8909,-109.9124,302.76,44,0,4.12,MX,1680978718
93,shchors,51.8186,31.945,283.16,74,100,3.29,UA,1680979042
94,thompson,55.7435,-97.8558,278.24,42,0,3.6,CA,1680978880
95,london,51.5085,-0.1257,286.43,67,91,5.66,GB,1680978538
96,airai,-8.9266,125.4092,288.04,96,100,0.45,TL,1680978929
97,sungaipenuh,-2.0833,101.3833,291.41,97,100,0.69,ID,1680979043
98,bluff,-46.6,168.3333,281.36,85,93,3.53,NZ,1680978859
99,avarua,-21.2078,-159.775,300.18,83,75,4.12,CK,1680978864
100,bar harbor,44.3876,-68.2039,280.71,30,0,5.14,US,1680978905
101,waipawa,-41.4122,175.5153,284.11,89,100,2.94,NZ,1680979044
102,saint-philippe,-21.3585,55.7679,298.92,81,100,4.09,RE,1680978876
103,dzhankoy,45.7167,34.4,279.68,93,9,3.6,UA,1680979044
104,kapaa,22.0752,-159.319,297.33,82,75,6.17,US,1680978845
105,nikolskoye,59.7035,30.7861,280.09,97,18,1.86,RU,1680978836
106,kamaishi,39.2667,141.8833,276.94,75,100,4.13,JP,1680978963
107,mehamn,71.0357,27.8492,274.12,86,100,8.23,NO,1680979045
108,pisco,-13.7,-76.2167,299.18,78,20,4.63,PE,1680979045
109,bambous virieux,-20.3428,57.7575,297.71,94,75,4.63,MU,1680978837
110,maumere,-8.6199,122.2111,298.93,79,100,2.25,ID,1680979045
111,qaanaaq,77.484,-69.3632,250.92,77,0,2.73,GL,1680978837
112,mataura,-46.1927,168.8643,277.89,96,100,1.58,NZ,1680978838
113,santiago,-33.4569,-70.6483,304.98,17,0,3.09,CL,1680979046
114,salisbury,51.0693,-1.7957,284.58,75,76,4.12,GB,1680979046
115,port elizabeth,-33.918,25.5701,291.31,85,100,3.09,ZA,1680978848
116,marrakesh,31.6315,-8.0083,294.19,46,75,6.69,MA,1680978983
117,cap malheureux,-19.9842,57.6142,297.3,77,100,2.24,MU,1680979047
118,guayaramerin,-10.8368,-65.3614,304.18,62,40,4.12,BO,1680979047
119,guatire,10.4762,-66.5427,303.32,50,100,2.58,VE,1680979047
120,bosaso,11.2842,49.1816,300.67,76,6,0.27,SO,1680979047
121,new norfolk,-42.7826,147.0587,280.87,75,97,1.79,AU,1680978838
122,ostrovnoy,68.0531,39.5131,274.76,98,100,8.15,RU,1680978936
123,simao,22.7886,100.9748,292.47,44,7,0.44,CN,1680979048
124,srednekolymsk,67.45,153.6833,250.45,100,99,2.61,RU,1680978907
125,vila franca do campo,37.7167,-25.4333,288.38,63,100,4.06,PT,1680978885
126,korla,41.7597,86.1469,284.96,21,0,0.85,CN,1680978929
127,east london,-33.0153,27.9116,292.67,100,100,3.09,ZA,1680978843
128,belaya gora,68.5333,146.4167,246.26,100,92,2.03,RU,1680979049
129,norman wells,65.282,-126.8329,266.17,63,75,0.0,CA,1680978868
130,sao joao da barra,-21.6403,-41.0511,305.2,85,100,5.46,BR,1680978892
131,ca mau,9.1769,105.15,299.33,79,25,2.4,VN,1680978857
132,nhulunbuy,-12.2333,136.7667,298.49,100,75,0.0,AU,1680978957
133,iwanai,42.9744,140.5089,276.22,85,100,3.69,JP,1680979049
134,lufilufi,-13.8745,-171.5986,296.03,78,37,9.49,WS,1680978958
135,lavrentiya,65.5833,-171.0,251.55,87,100,2.47,RU,1680978898
136,luanda,-8.8368,13.2343,301.15,74,75,4.12,AO,1680978768
137,hobart,-42.8794,147.3294,281.07,83,40,9.26,AU,1680978552
138,shenzhen,22.5455,114.0683,293.78,86,56,2.64,CN,1680979006
139,alofi,-19.0595,-169.9187,297.09,94,40,1.03,NU,1680978839
140,dalvik,65.9702,-18.5286,284.11,81,1,5.31,IS,1680979051
141,gornopravdinsk,60.05,69.9,269.07,90,80,2.68,RU,1680978950
142,cabrobo,-8.5142,-39.31,307.28,36,35,6.19,BR,1680979051
143,evensk,61.95,159.2333,255.73,80,9,3.74,RU,1680979051
144,nandurbar,21.3667,74.25,302.73,33,17,3.23,IN,1680979052
145,kavieng,-2.5744,150.7967,298.12,86,100,1.72,PG,1680978877
146,nalut,30.3333,10.85,291.3,43,18,6.75,LY,1680979052
147,dingle,10.9995,122.6711,297.01,88,100,3.3,PH,1680978903
148,beringovskiy,63.05,179.3167,255.48,95,100,1.64,RU,1680978843
149,tura,25.5198,90.2201,296.43,35,100,1.43,IN,1680978897
150,acajutla,13.5928,-89.8275,304.66,51,0,5.53,SV,1680978896
151,bredasdorp,-34.5322,20.0403,288.49,65,100,0.2,ZA,1680978877
152,la ronge,55.1001,-105.2842,278.29,42,20,4.12,CA,1680978941
153,biak,-0.9131,122.8766,297.7,78,100,1.94,ID,1680979053
154,turbat,26.0023,63.044,299.43,34,41,1.13,PK,1680979053
155,victoria,22.2855,114.1577,293.84,82,87,1.34,HK,1680978863
156,peleduy,59.6289,112.7406,256.68,95,100,2.59,RU,1680979053
157,qeshm,26.9581,56.2719,296.09,72,100,1.68,IR,1680979054
158,amahai,-3.3333,128.9167,298.68,83,100,2.41,ID,1680979054
159,wanxian,30.8039,108.3897,288.6,70,100,0.99,CN,1680979054
160,ancud,-41.8697,-73.8203,287.98,56,77,1.19,CL,1680978839
161,rodeo,38.033,-122.2669,291.17,69,40,1.79,US,1680979054
162,igrim,63.1906,64.4162,271.51,98,100,1.18,RU,1680979055
163,quatre cocos,-20.2078,57.7625,297.09,81,100,4.32,MU,1680978933
164,batagay,67.6333,134.6333,255.73,94,100,1.6,RU,1680978960
165,angoche,-16.2325,39.9086,299.05,82,18,2.18,MZ,1680979055
166,oktyabrskiy,54.4815,53.471,276.0,48,14,0.79,RU,1680979055
167,puerto ayora,-0.7393,-90.3518,303.13,84,67,2.68,EC,1680978856
168,naze,28.3667,129.4833,286.66,62,0,5.92,JP,1680978919
169,katangli,51.7102,143.2326,268.24,80,100,6.34,RU,1680978955
170,hithadhoo,-0.6,73.0833,301.0,69,41,0.79,MV,1680978851
171,maceio,-9.6658,-35.7353,298.84,94,100,4.12,BR,1680978810
172,teguise,29.0605,-13.564,291.27,56,20,6.17,ES,1680979056
173,leningradskiy,69.3833,178.4167,250.35,89,99,5.65,RU,1680978947
174,hamilton,39.1834,-84.5333,287.4,35,0,7.72,US,1680978657
175,buraydah,26.326,43.975,298.4,25,5,3.68,SA,1680979057
176,gomel,52.4345,30.9754,285.14,58,0,3.0,BY,1680978842
177,grenaa,56.4158,10.8783,281.27,85,26,3.72,DK,1680979057
178,necochea,-38.5473,-58.7368,299.49,40,86,3.49,AR,1680978847
179,richards bay,-28.783,32.0377,295.38,91,28,0.91,ZA,1680978881
180,iguape,-24.7081,-47.5553,295.25,91,100,1.83,BR,1680979057
181,axim,4.8699,-2.2405,300.81,81,20,5.15,GH,1680979058
182,tuatapere,-46.1333,167.6833,279.81,92,55,2.0,NZ,1680978963
183,iqaluit,63.7506,-68.5145,257.0,66,40,9.77,CA,1680978901
184,berlevag,70.8578,29.0864,274.15,80,100,11.32,NO,1680978959
185,cayenne,4.9333,-52.3333,303.17,58,75,4.12,GF,1680978708
186,sambava,-14.2667,50.1667,298.1,88,67,2.84,MG,1680978991
187,koboko,3.4136,30.9599,293.8,60,15,0.8,UG,1680979059
188,vostok,46.4856,135.8833,266.9,68,2,1.49,RU,1680978894
189,bulgan,48.8125,103.5347,277.47,52,100,2.15,MN,1680978960
190,huicungo,-7.2833,-76.8,297.29,88,100,1.54,PE,1680979059
191,coquimbo,-29.9533,-71.3436,291.0,77,100,2.57,CL,1680978748
192,karlshamn,56.1706,14.8619,281.42,68,25,4.05,SE,1680979060
193,shushenskoye,53.325,91.9356,268.42,69,33,9.84,RU,1680979060
194,grand gaube,-20.0064,57.6608,297.25,77,100,2.24,MU,1680978867
195,zhangjiakou,40.81,114.8794,280.69,40,0,0.84,CN,1680979060
196,hami,42.8,93.45,284.41,32,0,3.07,CN,1680978912
197,masterton,-40.9597,175.6575,284.48,89,100,1.11,NZ,1680979060
198,tommot,58.9564,126.2925,264.1,94,100,3.91,RU,1680978903
199,zdvinsk,54.7021,78.661,270.11,69,99,6.88,RU,1680979061
200,bac lieu,9.285,105.7244,300.72,75,24,5.42,VN,1680979061
201,northam,51.0333,-4.2167,284.05,70,100,6.13,GB,1680978952
202,wagar,16.1525,36.2032,304.45,36,29,6.27,SD,1680979061
203,snezhnogorsk,69.1933,33.2531,275.03,90,100,6.13,RU,1680979061
204,mareeba,-17.0,145.4333,297.55,92,100,0.55,AU,1680979062
205,alice springs,-23.7,133.8833,288.27,74,1,0.0,AU,1680979062
206,poykovskiy,61.2333,73.3333,258.25,60,0,4.0,RU,1680979062
207,cherskiy,68.75,161.3,244.43,100,100,1.2,RU,1680978882
208,pacific grove,36.6177,-121.9166,290.38,82,75,2.57,US,1680978925
209,wladyslawowo,54.7909,18.4009,284.01,94,100,2.94,PL,1680979062
210,mount gambier,-37.8333,140.7667,284.83,69,100,4.36,AU,1680978839
211,terenos,-20.4422,-54.8603,299.99,73,75,3.6,BR,1680979063
212,tasiilaq,65.6145,-37.6368,273.77,96,100,12.26,GL,1680978856
213,sioux lookout,50.1001,-91.917,279.19,33,0,3.6,CA,1680979063
214,palatka,29.6486,-81.6376,303.21,42,99,0.45,US,1680979063
215,konanur,12.6264,76.0542,295.86,54,0,0.49,IN,1680979063
216,marystown,47.1666,-55.1483,273.07,100,64,6.26,CA,1680978840
217,ribeira grande,38.5167,-28.7,289.37,63,75,7.2,PT,1680978863
218,inirida,3.8653,-67.9239,297.17,92,100,0.58,CO,1680979064
219,saint-louis,16.3333,-15.0,308.95,18,100,1.43,SN,1680979064
220,tokur,53.1333,132.9,263.48,97,80,1.33,RU,1680979064
221,riohacha,11.5444,-72.9072,303.21,66,40,5.66,CO,1680979064
222,tucumcari,35.1717,-103.725,294.79,24,0,5.14,US,1680979064
223,butaritari,3.0707,172.7902,300.4,83,70,7.53,KI,1680978883
224,saldanha,-33.0117,17.9442,287.18,70,12,7.67,ZA,1680978865
225,saint-pierre,-21.3393,55.4781,298.97,78,100,1.54,RE,1680979065
226,portland,45.5234,-122.6762,285.93,75,100,4.63,US,1680978836
227,rio grande,-32.035,-52.0986,299.21,60,24,4.79,BR,1680978898
228,bilma,18.6853,12.9164,306.4,8,2,3.61,NE,1680979066
229,dergachi,51.2328,48.7659,281.09,49,100,3.83,RU,1680979066
230,basco,20.4487,121.9702,295.67,75,100,11.12,PH,1680979066
231,severo-kurilsk,50.6789,156.125,275.04,99,100,3.03,RU,1680979066
232,meru,0.0463,37.6559,288.98,89,36,1.71,KE,1680979066
233,almaznyy,48.0448,40.045,282.3,64,100,5.17,RU,1680978967
234,olonets,60.9847,32.9698,273.35,99,74,1.6,RU,1680979067
235,kloulklubed,7.0419,134.2556,297.43,82,88,7.13,PW,1680978861
236,lebu,-37.6167,-73.65,289.39,61,93,4.83,CL,1680978845
237,yangambi,0.8102,24.4336,295.41,95,84,0.87,CD,1680979067
238,ushtobe,45.2514,77.9838,281.38,60,100,5.94,KZ,1680979067
239,bethlehem,-1.4558,-48.5044,302.17,74,75,3.09,BR,1680979068
240,adrar,20.5022,-10.0711,302.1,14,100,4.23,MR,1680979068
241,rothesay,55.8365,-5.0551,285.18,78,100,3.45,GB,1680979068
242,ambilobe,-13.2,49.05,296.87,92,5,1.66,MG,1680979068
243,mucuri,-18.0864,-39.5508,301.12,68,66,5.13,BR,1680979068
244,deputatskiy,69.3,139.9,244.22,100,100,1.18,RU,1680979069
245,nyagan,62.1406,65.3936,273.74,99,100,1.93,RU,1680979069
246,hasaki,35.7333,140.8333,280.53,40,0,9.3,JP,1680978888
247,henties bay,-22.116,14.2845,289.24,88,17,5.58,,1680978860
248,chilca,-12.5211,-76.7372,298.77,74,14,4.26,PE,1680979069
249,meulaboh,4.1363,96.1285,298.31,89,100,1.85,ID,1680978861
250,abu dhabi,24.4667,54.3667,299.23,51,0,3.6,AE,1680978884
251,baruun-urt,46.6806,113.2792,277.35,37,8,1.55,MN,1680979069
252,vardo,70.3705,31.1107,274.14,93,100,6.69,NO,1680978895
253,ilulissat,69.2167,-51.1,266.16,79,75,5.14,GL,1680978900
254,neryungri,56.6709,124.6491,261.19,77,100,4.41,RU,1680979070
255,maloy,61.9353,5.1136,281.0,65,93,3.8,NO,1680979070
256,ilhabela,-23.7781,-45.3581,296.52,90,100,3.48,BR,1680979070
257,mercedes,-34.6515,-59.4307,300.29,34,5,2.46,AR,1680979071
258,faya,18.3851,42.4509,290.44,42,37,3.53,SA,1680979071
259,kannauj,27.0546,79.922,297.62,39,0,2.76,IN,1680979071
260,port augusta,-32.5,137.7667,287.2,76,1,3.18,AU,1680979071
261,podor,16.6527,-14.9587,309.12,34,0,1.03,MR,1680979071
262,tazmalt,36.3868,4.3989,288.44,51,0,2.02,DZ,1680979071
263,barrow,71.2906,-156.7887,241.16,75,0,4.63,US,1680978839
264,manoel urbano,-8.8389,-69.2597,299.59,91,67,1.16,BR,1680979072
265,urumqi,43.801,87.6005,282.68,40,0,2.0,CN,1680979072
266,saskylakh,71.9167,114.0833,253.19,98,100,4.65,RU,1680978858
267,xianyang,34.3378,108.7026,283.73,81,0,2.0,CN,1680979072
268,matara,5.9485,80.5353,298.2,86,62,2.02,LK,1680978942
269,prieska,-29.6641,22.7474,294.15,31,100,7.77,ZA,1680979073
270,araouane,18.9048,-3.5265,303.47,12,68,4.05,ML,1680979073
271,bonavista,48.6499,-53.1147,271.18,80,100,7.04,CA,1680979073
272,bafata,12.1667,-14.75,309.36,13,100,1.17,GW,1680979073
273,tarrafal,15.2833,-23.7667,297.59,74,65,7.28,CV,1680979073
274,vestmanna,62.1564,-7.1664,280.66,81,20,8.23,FO,1680978942
275,anloga,5.7947,0.8973,301.48,79,41,5.29,GH,1680979074
276,arraial do cabo,-22.9661,-42.0278,297.07,94,75,4.12,BR,1680978870
277,guerrero negro,27.9769,-114.0611,292.16,54,12,6.99,MX,1680978918
278,kupang,-10.1667,123.5833,297.47,100,100,2.06,ID,1680978954
279,san jose,37.3394,-121.895,291.8,67,75,6.71,US,1680978911
280,ponta do sol,32.6667,-17.1,293.15,68,100,0.65,PT,1680978856
281,tiksi,71.6872,128.8694,251.81,100,99,2.58,RU,1680978913
282,manta,-0.95,-80.7333,302.03,74,75,3.09,EC,1680979075
283,zhigalovo,54.8097,105.1578,262.63,96,90,0.77,RU,1680979075
284,lagoa,39.05,-27.9833,287.47,71,100,10.9,PT,1680978910
285,lompoc,34.6391,-120.4579,294.65,72,20,3.6,US,1680978908
286,ardakan,32.31,54.0175,294.62,12,0,3.41,IR,1680979076
287,kieta,-6.2167,155.6333,298.89,82,100,1.18,PG,1680979076
288,greenwood,34.1668,-82.1165,279.97,92,100,5.66,US,1680978790
289,wanning,18.8003,110.3967,295.92,92,100,4.5,CN,1680978899
290,peddapalli,18.6167,79.3667,299.68,52,2,1.3,IN,1680979076
291,mikhaylovka,50.06,43.2379,278.03,63,40,3.55,RU,1680979076
292,gat,31.61,34.7642,298.37,100,86,2.44,IL,1680978901
293,mariental,-24.6333,17.9667,299.16,18,84,4.21,,1680979077
294,sinegorye,62.0788,150.477,252.76,84,17,1.93,RU,1680979077
295,constitucion,-35.3333,-72.4167,292.83,48,4,5.17,CL,1680978909
296,wahiawa,21.5028,-158.0236,297.33,74,100,1.54,US,1680979077
297,kysyl-syr,63.8986,122.7617,248.18,99,100,1.58,RU,1680979078
298,san ignacio,17.1561,-89.0714,306.23,38,40,2.06,BZ,1680979078
299,whitianga,-36.8333,175.7,286.89,86,100,0.83,NZ,1680979078
300,coihaique,-45.5752,-72.0662,289.12,36,20,3.09,CL,1680978955
301,ebolowa,2.9,11.15,295.4,97,100,1.72,CM,1680979078
302,sumbe,-11.2061,13.8437,299.65,88,100,3.55,AO,1680979078
303,mnogovershinnyy,53.9353,139.9242,262.33,86,70,1.09,RU,1680979078
304,lahaina,20.8783,-156.6825,298.6,78,100,4.06,US,1680979079
305,komsomolskiy,40.4272,71.7189,288.55,63,100,2.06,UZ,1680979079
306,marsa matruh,31.3525,27.2453,290.26,82,40,8.75,EG,1680978927
307,nemuro,43.3236,145.575,274.2,90,100,7.56,JP,1680979079
308,gurupa,-1.405,-51.64,301.77,71,100,0.98,BR,1680979080
309,bali,-8.5,115.0,298.69,91,100,2.15,ID,1680979080
310,ahipara,-35.1667,173.1667,289.11,94,87,3.15,NZ,1680978913
311,posse,-14.0931,-46.3694,301.5,53,100,3.16,BR,1680979080
312,oga,46.4631,10.347,277.53,92,23,2.41,IT,1680979080
313,bubaque,11.2833,-15.8333,298.56,73,100,9.68,GW,1680979081
314,puerto narino,-3.7703,-70.3831,299.78,84,74,1.05,CO,1680979081
315,roebourne,-20.7833,117.1333,301.56,39,41,3.59,AU,1680979081
316,kruisfontein,-34.0033,24.7314,288.64,89,100,6.95,ZA,1680978873
317,sindou,10.6667,-5.1667,303.02,46,42,1.75,BF,1680979081
318,magadan,59.5667,150.8,259.72,81,100,3.27,RU,1680978918
319,hudson bay,52.85,-102.3842,277.84,72,12,5.76,CA,1680979082
320,petropavlovsk-kamchatskiy,53.0452,158.6483,271.48,100,75,0.0,RU,1680979082
321,fort-shevchenko,44.5086,50.263,284.55,78,100,4.34,KZ,1680979082
322,sysert,56.4953,60.8192,274.56,81,1,2.31,RU,1680979083
323,port hardy,50.6996,-127.4199,281.25,93,100,2.57,CA,1680978883
324,rudbar,30.15,62.6,297.66,30,2,5.08,AF,1680979083
325,coahuayana,18.7333,-103.6833,306.02,34,4,3.98,MX,1680979083
326,lata,40.1629,-8.3327,289.03,62,90,1.43,PT,1680978907
327,wodonga,-36.1167,146.8833,283.86,100,44,4.23,AU,1680979084
328,sosua,19.7667,-70.5167,305.14,65,40,9.26,DO,1680979084
329,mathbaria,22.2876,89.9593,298.89,67,0,2.81,BD,1680979036
330,shache,38.4167,77.2406,288.68,14,16,3.55,CN,1680979085
331,qui nhon,13.7667,109.2333,296.99,92,9,3.87,VN,1680979085
332,hit,33.6416,42.8251,296.65,26,100,3.29,IQ,1680979085
333,alugan,12.2188,125.4808,298.71,84,40,5.62,PH,1680979086
334,matagami,49.7502,-77.6328,276.21,35,0,5.14,CA,1680979086
335,usvyaty,55.7456,30.7533,280.43,89,69,1.97,RU,1680979086
336,hualmay,-11.0964,-77.6139,300.36,68,90,4.8,PE,1680979087
337,yurimaguas,-5.9,-76.0833,297.24,94,100,0.0,PE,1680979087
338,slonim,53.0867,25.3219,282.21,97,100,2.14,BY,1680979088
339,comodoro rivadavia,-45.8667,-67.5,293.07,15,0,9.26,AR,1680978903
340,yar-sale,66.8333,70.8333,247.76,98,100,2.93,RU,1680978795
341,half moon bay,37.4636,-122.4286,291.43,77,75,4.63,US,1680978950
342,karakulino,56.012,53.7067,276.35,45,8,1.09,RU,1680979088
343,uruzgan,32.8333,66.0,288.6,35,0,0.67,AF,1680978946
344,kobryn,52.2138,24.3564,282.12,94,100,2.1,BY,1680979089
345,belyy yar,53.6039,91.3903,269.09,63,0,6.0,RU,1680978937
346,ciudad del maiz,22.4,-99.6,293.78,64,88,2.87,MX,1680979089
347,chitrakonda,18.1167,82.0833,300.57,48,72,0.8,IN,1680978875
348,yaransk,57.3033,47.8861,275.38,57,55,2.29,RU,1680979090
349,la mana,-0.9333,-79.2167,303.63,65,100,2.32,EC,1680979090
350,kenitra,34.261,-6.5802,294.57,69,18,3.2,MA,1680979091
351,yeppoon,-23.1333,150.7333,289.03,43,0,3.18,AU,1680978935
352,ocos,14.5094,-92.1933,305.25,60,9,5.08,GT,1680979091
353,port macquarie,-31.4333,152.9167,285.31,62,0,4.01,AU,1680978654
354,beloha,-25.1667,45.05,297.1,86,100,2.66,MG,1680978960
355,kijang,35.2442,129.2139,280.0,40,6,2.35,KR,1680979092
356,bukachacha,52.9833,116.9167,265.54,82,7,1.3,RU,1680979092
357,barabinsk,55.3571,78.357,269.12,77,94,6.48,RU,1680979093
358,yumen,40.2833,97.2,282.53,15,87,6.84,CN,1680978911
359,sur,22.5667,59.5289,299.84,59,51,4.24,OM,1680979093
360,kudahuvadhoo,2.6708,72.8944,301.59,74,16,4.18,MV,1680979094
361,carnarvon,-24.8667,113.6333,294.45,70,6,5.99,AU,1680978874
362,ovca,44.8835,20.5334,281.46,82,75,2.06,RS,1680979095
363,poronaysk,49.2167,143.1167,267.82,85,7,3.39,RU,1680979096
364,saint george,37.1041,-113.5841,290.61,29,0,0.89,US,1680978634
365,san policarpo,12.1791,125.5072,298.99,83,46,5.81,PH,1680978948
366,wajima,37.4,136.9,279.51,51,7,7.82,JP,1680978879
367,manakara,-22.1333,48.0167,296.61,91,100,1.51,MG,1680979096
368,puerto colombia,10.9878,-74.9547,305.2,77,29,8.03,CO,1680979097
369,mechetinskaya,46.7713,40.456,284.79,85,100,2.82,RU,1680979097
370,locri,38.2414,16.2623,284.99,64,100,2.39,IT,1680979097
371,jiancheng,30.391,104.5491,288.01,72,86,0.83,CN,1680979098
372,tevaitoa,-16.7833,-151.5,301.55,76,55,9.47,PF,1680979098
373,dayong,25.0209,118.2898,286.36,72,7,0.67,CN,1680979098
374,aguimes,27.9054,-15.4461,291.85,60,75,7.72,ES,1680979061
375,valdez,1.2492,-78.9831,301.12,73,100,4.3,EC,1680979099
376,carutapera,-1.195,-46.02,300.76,76,95,2.67,BR,1680979100
377,merauke,-8.4667,140.3333,299.28,86,100,1.67,ID,1680979101
378,ambon,-3.6954,128.1814,297.23,94,20,4.06,ID,1680978924
379,biga,40.2281,27.2422,281.4,92,100,2.3,TR,1680979101
380,high level,58.5169,-117.136,281.21,46,40,3.6,CA,1680978901
381,kilindoni,-7.9139,39.6668,300.73,78,89,4.1,TZ,1680979102
382,summerside,46.3959,-63.7876,274.64,44,99,6.69,CA,1680979102
383,oktyabrskoye,43.0645,44.7417,280.23,93,100,3.0,RU,1680979102
384,labuhan,-6.8844,112.2051,298.53,85,100,3.36,ID,1680979102
385,margate,51.3813,1.3862,283.09,84,98,0.89,GB,1680978929
386,cidreira,-30.1811,-50.2056,294.34,79,100,5.35,BR,1680978773
387,belmonte,-15.8631,-38.8828,301.04,71,94,4.11,BR,1680978892
388,nola,40.922,14.5329,284.06,85,100,1.33,IT,1680979105
389,lorengau,-2.0226,147.2712,299.08,88,100,5.2,PG,1680978897
390,nelson bay,-32.7167,152.15,290.93,64,0,7.6,AU,1680978940
391,la reforma,25.0833,-108.05,301.1,24,0,4.78,MX,1680979105
392,kutum,14.2,24.6667,300.61,12,5,4.14,SD,1680979105
393,kavaratti,10.5669,72.642,301.07,73,0,1.94,IN,1680978888
394,japura,-0.3167,102.35,296.17,98,91,0.61,ID,1680979107
395,romny,50.751,33.4747,283.28,75,100,3.21,UA,1680979107
396,sitka,57.0531,-135.33,282.09,57,75,6.69,US,1680978888
397,iskilip,40.7353,34.4739,281.93,61,100,2.38,TR,1680979107
398,abonnema,4.7084,6.7931,300.57,81,100,3.48,NG,1680979107
399,praia da vitoria,38.7333,-27.0667,290.29,63,20,6.12,PT,1680979108
400,ust-tsilma,65.441,52.1498,274.22,90,100,4.48,RU,1680979108
401,bowling green,36.9903,-86.4436,286.11,38,0,6.17,US,1680978898
402,sovetskiy,61.3614,63.5842,273.36,95,100,2.33,RU,1680979109
403,chara,56.9064,118.2631,255.17,73,23,1.64,RU,1680979109
404,santona,43.4439,-3.4576,291.32,75,95,3.12,ES,1680978910
405,esperance,-33.8667,121.9,287.94,87,91,4.7,AU,1680978858
406,liseleje,56.0053,11.9483,282.73,81,26,2.24,DK,1680979110
407,opuwo,-18.0607,13.84,296.12,53,100,2.21,,1680979110
408,hirara,24.8,125.2833,291.3,63,100,5.66,JP,1680978965
409,srandakan,-7.9386,110.2506,297.06,90,100,1.6,ID,1680979111
410,arvika,59.6553,12.5852,280.49,92,89,1.76,SE,1680979111
411,codrington,-38.2667,141.9667,285.46,67,100,7.79,AU,1680978860
412,altamont,42.2068,-121.7372,282.81,59,40,3.13,US,1680978825
413,hobyo,5.3505,48.5268,301.4,69,3,5.48,SO,1680979112
414,athabasca,54.7169,-113.2854,279.38,80,75,1.91,CA,1680979113
415,kemijarvi,66.7131,27.4306,273.21,91,100,2.43,FI,1680979113
416,camana,-16.6228,-72.7111,298.31,67,8,3.39,PE,1680979113
417,bandarbeyla,9.4942,50.8122,300.93,74,13,5.08,SO,1680979114
418,sabha,27.0377,14.4283,297.27,18,93,5.76,LY,1680978846
419,faanui,-16.4833,-151.75,301.62,76,49,9.66,PF,1680978877
420,babstovo,48.1167,132.4833,273.73,73,0,1.42,RU,1680979114
421,tomatlan,19.9333,-105.25,306.66,26,4,4.88,MX,1680979115
422,sulangan,11.1373,123.7228,299.94,82,100,8.77,PH,1680979115
423,bentiu,9.2333,29.8333,305.79,25,67,2.58,SS,1680979115
424,hay river,60.8156,-115.7999,279.14,70,100,4.12,CA,1680978959
425,kristiansund,63.1115,7.732,281.18,75,20,2.57,NO,1680979115
426,laguna,38.421,-121.4238,291.27,53,20,1.34,US,1680978681
427,stromness,58.965,-3.296,280.13,85,6,8.49,GB,1680978847
428,smithers,54.7804,-127.1743,281.33,49,75,5.14,CA,1680979116
429,guymon,36.6828,-101.4816,295.15,15,0,8.23,US,1680979117
430,caravelas,-17.7125,-39.2481,301.3,67,19,4.05,BR,1680979117
431,muroto,33.2833,134.15,285.21,48,0,4.2,JP,1680979118
432,kalmar,56.6616,16.3616,278.11,82,34,4.92,SE,1680979099
433,lulea,65.5842,22.1547,276.19,81,100,0.0,SE,1680979118
434,pirgos,35.1167,25.7178,286.83,78,83,2.36,GR,1680979119
435,ukiah,39.1502,-123.2078,287.8,69,100,1.54,US,1680979119
436,daru,-9.0763,143.2092,297.85,91,100,1.95,PG,1680978931
437,adwa,14.1646,38.8955,293.22,43,64,1.05,ET,1680979119
438,oriximina,-1.7656,-55.8661,301.72,75,100,1.17,BR,1680979120
439,onokhoy,51.932,108.0747,272.01,80,71,1.68,RU,1680979120
440,westport,41.1415,-73.3579,285.63,28,0,3.09,US,1680979120
441,chicama,-7.8447,-79.1469,302.45,57,100,4.76,PE,1680979121
442,padang,-0.9492,100.3543,297.91,84,99,1.55,ID,1680979121
443,klaksvik,62.2266,-6.589,281.66,89,85,12.19,FO,1680978928
444,luderitz,-26.6481,15.1594,288.88,66,83,13.1,,1680978908
445,gamba,-2.65,10.0,300.07,83,100,3.0,GA,1680978943
446,abong mbang,3.9833,13.1833,293.86,98,100,0.43,CM,1680979122
447,katherine,-14.4667,132.2667,298.33,94,97,2.57,AU,1680978923
448,mmathubudukwane,-24.6,26.4333,296.83,30,3,1.6,BW,1680979122
449,reconquista,-29.15,-59.65,300.46,37,0,3.73,AR,1680979123
450,tiarei,-17.5333,-149.3333,302.16,77,38,9.48,PF,1680979123
451,harper,4.375,-7.7169,300.35,81,100,3.32,LR,1680978879
452,tchollire,8.4022,14.1698,306.66,23,73,1.34,CM,1680979123
453,nayoro,44.3506,142.4578,275.44,99,100,1.92,JP,1680979123
454,tomari,47.7658,142.0683,270.79,87,32,4.6,RU,1680979123
455,filadelfia,39.9523,-75.1638,284.98,30,75,3.6,US,1680978958
456,salaspils,56.8601,24.3654,282.99,61,93,2.24,LV,1680979124
457,bahia blanca,-38.7196,-62.2724,302.5,27,29,5.82,AR,1680979124
458,san andres,12.5847,-81.7006,303.16,66,40,5.66,CO,1680978919
459,varde,55.6211,8.4807,284.8,67,52,1.54,DK,1680979124
460,takhtamygda,54.1,123.5667,268.21,95,100,2.32,RU,1680979124
461,peniche,39.3558,-9.3811,290.13,75,71,4.43,PT,1680979125
462,mana,5.6592,-53.7767,301.27,63,71,3.98,GF,1680979125
463,benjamin aceval,-24.9667,-57.5667,302.37,34,0,2.05,PY,1680979125
464,kitangari,-10.65,39.3333,294.6,99,100,1.43,TZ,1680979125
465,yulara,-25.2406,130.9889,292.04,43,2,4.72,AU,1680978950
466,santiago del estero,-27.7951,-64.2615,302.62,45,65,4.09,AR,1680979126
467,chalus,36.655,51.4204,287.85,82,75,15.95,IR,1680979126
468,san patricio,28.017,-97.5169,292.55,71,94,2.07,US,1680978893
469,mungaa,-4.9667,34.8833,289.39,64,18,2.25,TZ,1680979126
470,road town,18.4167,-64.6167,301.2,65,20,5.14,VG,1680978972
471,santa barbara,34.7333,-120.0343,290.88,66,0,3.09,US,1680978882
472,laurel,39.0993,-76.8483,285.77,36,0,5.14,US,1680979127
473,banjarmasin,-3.3244,114.591,297.23,95,76,0.68,ID,1680979127
474,altamira,-3.2033,-52.2064,303.2,70,75,1.03,BR,1680979127
475,maniitsoq,65.4167,-52.9,269.28,81,14,9.8,GL,1680979127
476,taree,-31.9,152.4667,287.07,63,0,3.7,AU,1680979035
477,mantua,45.1667,10.7833,285.98,85,100,4.47,IT,1680979128
478,quelimane,-17.8786,36.8883,296.59,93,7,2.42,MZ,1680979128
479,itarema,-2.9248,-39.9167,301.33,75,89,2.87,BR,1680978935
480,ndele,8.4109,20.6473,303.59,12,100,1.52,CF,1680978883
481,dennery,13.8996,-60.8879,302.22,74,75,9.77,LC,1680979129
482,jiwani,25.05,61.7417,297.61,68,84,3.15,PK,1680979129
483,yershov,51.3513,48.2766,279.89,57,81,3.04,RU,1680979129
484,pangnirtung,66.1451,-65.7125,250.15,77,0,3.09,CA,1680978855
485,lujiang,31.2581,117.2817,284.05,57,1,1.16,CN,1680979129
486,topeka,39.0483,-95.678,293.47,25,0,5.66,US,1680979129
487,broken hill,-31.95,141.4333,284.83,72,0,4.18,AU,1680979130
488,clinton,42.587,-82.9199,285.62,61,14,1.79,US,1680979130
489,warrnambool,-38.3833,142.4833,285.0,65,100,8.9,AU,1680979094
490,znamenskoye,57.1281,73.8282,271.85,81,72,3.93,RU,1680978926
491,gorontalo,0.5412,123.0595,296.73,93,100,1.78,ID,1680979130
492,general jose eduvigis diaz,-27.1667,-58.4167,299.17,35,0,3.34,PY,1680979130
493,linhares,-19.3911,-40.0722,302.72,61,94,3.13,BR,1680979131
494,fukue,32.6881,128.8419,286.12,44,83,5.68,JP,1680979006
495,kamenka,51.3223,42.7678,279.21,66,6,2.87,RU,1680979131
496,pevek,69.7008,170.3133,242.39,100,100,1.87,RU,1680978882
497,svetlogorsk,52.6333,29.7333,282.66,77,100,2.71,BY,1680978945
498,kem,64.9555,34.5793,273.42,98,100,2.05,RU,1680979132
499,kallosemjen,47.8608,21.9393,278.96,88,52,2.45,HU,1680979132
500,khandyga,62.6667,135.6,266.41,88,100,3.82,RU,1680978892
501,pochutla,15.7432,-96.4661,306.38,39,29,4.57,MX,1680978890
502,muros,42.7762,-9.0603,295.45,73,100,1.39,ES,1680978937
503,sovetskaya gavan,48.9723,140.2878,270.32,94,76,0.16,RU,1680979133
504,isangel,-19.55,169.2667,299.18,87,58,1.84,VU,1680978877
505,dalby,-27.1833,151.2667,288.11,63,0,3.87,AU,1680978917
506,vanavara,60.34,102.2797,261.86,95,100,2.75,RU,1680979133
507,atasu,48.6814,71.6433,272.72,63,1,4.13,KZ,1680979133
508,kahului,20.8947,-156.47,298.62,71,40,4.63,US,1680978797
509,morehead,37.2711,-87.1764,289.18,43,0,4.63,US,1680979134
510,bengkulu,-3.8004,102.2655,297.37,91,92,1.65,ID,1680978554
511,kurilsk,45.2333,147.8833,272.76,92,99,5.32,RU,1680978890
512,mayo,38.8876,-76.5119,285.43,40,0,3.6,US,1680979134
513,nanzhang,31.7765,111.8386,286.49,58,90,1.47,CN,1680979135
514,okha,53.5739,142.9478,267.62,75,98,6.39,RU,1680979135
515,makakilo city,21.3469,-158.0858,298.33,69,0,2.06,US,1680979135
516,houma,29.5958,-90.7195,295.37,91,100,4.63,US,1680979135
517,olga,43.7444,135.2892,272.6,69,0,1.93,RU,1680979135
518,xai-xai,-25.0519,33.6442,296.57,89,0,3.27,MZ,1680979135
519,ropczyce,50.0523,21.6089,280.02,91,77,2.22,PL,1680979135
520,liaqatabad,31.5647,74.3029,297.17,57,0,0.0,PK,1680979136
521,svetlaya,46.5389,138.3297,272.62,88,70,1.33,RU,1680979136
522,biloela,-24.4167,150.5,290.59,46,0,3.07,AU,1680978971
523,corpus christi,27.8006,-97.3964,292.15,86,100,5.66,US,1680978955
524,miri,4.4148,114.0089,297.23,100,40,1.54,MY,1680979137
525,itoman,26.1247,127.6694,289.16,59,1,3.6,JP,1680979137
526,nome,64.5011,-165.4064,243.19,83,0,0.0,US,1680978866
527,salazie,-21.0273,55.539,295.96,93,100,4.12,RE,1680979137
528,hambantota,6.1241,81.1185,297.34,100,20,1.54,LK,1680978901
529,teknaf,20.8624,92.3058,297.47,61,0,2.72,BD,1680979138
530,iquitos,-3.7481,-73.2472,302.17,84,75,3.09,PE,1680978888
531,puerto madryn,-42.7692,-65.0385,297.05,40,100,6.26,AR,1680979138
532,antalaha,-14.9003,50.2788,297.13,92,100,2.5,MG,1680978966
533,rincon,32.296,-81.2354,288.63,92,100,6.17,US,1680978666
534,ormara,25.2088,64.6357,297.8,65,0,4.34,PK,1680979138
535,moindou,-21.6924,165.677,296.6,81,0,1.53,NC,1680979139
536,bilibino,68.0546,166.4372,244.52,89,5,1.91,RU,1680978967
537,watertown,42.3709,-71.1828,284.58,21,0,7.2,US,1680979139
538,helong,42.5397,128.9972,273.34,43,0,2.63,CN,1680979139
539,kemi,65.8596,24.8228,273.02,86,0,1.03,FI,1680979139
540,bay-khaak,51.1667,94.5,272.01,78,100,6.17,RU,1680979140
541,nouadhibou,20.931,-17.0347,293.14,73,0,9.26,MR,1680978953
542,atambua,-9.1061,124.8925,294.95,90,100,0.66,ID,1680979140
543,beira,-19.8436,34.8389,300.2,89,0,3.09,MZ,1680978953
544,krasnyy chikoy,50.3643,108.7512,272.28,90,100,1.47,RU,1680979141
545,zhuhai,22.2769,113.5678,293.99,73,40,5.14,CN,1680979141
546,zhicheng,30.2956,111.5047,286.56,62,29,1.23,CN,1680979141
547,talas,38.6908,35.5538,280.52,71,0,1.54,TR,1680979141
548,wells,51.2079,-2.649,285.4,73,100,3.02,GB,1680979141
549,sisimiut,66.9395,-53.6735,266.33,83,91,8.17,GL,1680979142
550,jacksonville,30.3322,-81.6556,303.74,63,100,5.14,US,1680978652
551,chaadayevka,53.1427,45.9122,277.07,51,0,2.39,RU,1680979142
552,diu,20.7141,70.9822,300.2,54,15,4.13,IN,1680979143
553,santa rosa,14.3122,121.1114,301.14,78,6,4.58,PH,1680979111
554,tsaratanana,-16.7833,47.65,296.01,89,87,2.95,MG,1680979143
555,dunedin,-45.8742,170.5036,284.06,79,100,7.47,NZ,1680978747
556,talnakh,69.4865,88.3972,245.61,92,40,1.67,RU,1680978882
557,la union,-5.4,-80.75,304.95,53,78,3.47,PE,1680979144
558,nicolas de pierola,-11.95,-76.7,295.31,69,100,4.16,PE,1680979145
559,erzin,36.9559,36.2,288.62,54,100,1.02,TR,1680978944
560,bayan,46.0833,127.4,275.09,30,2,3.64,CN,1680979146
561,namatanai,-3.6667,152.4333,298.7,81,100,1.13,PG,1680979146
562,mogadishu,2.0371,45.3438,301.5,74,46,7.39,SO,1680978589
563,saint-augustin,51.226,-58.6502,269.78,37,100,7.92,CA,1680979146
564,capitao poco,-1.7464,-47.0594,299.49,90,100,2.34,BR,1680979146
565,tanabe,33.7333,135.3667,282.0,60,1,4.98,JP,1680979147
566,ngorongoro,-3.2397,35.4875,284.94,90,100,1.64,TZ,1680979147
567,povenets,62.8487,34.8262,269.49,97,20,1.08,RU,1680979147
568,miraflores,19.2167,-98.8083,296.51,28,29,1.12,MX,1680979147
569,takoradi,4.8845,-1.7554,300.9,80,80,5.89,GH,1680978956
570,prince rupert,54.3161,-130.3201,279.98,86,100,13.89,CA,1680979148
571,xucheng,20.35,110.1288,293.74,86,99,6.84,CN,1680979148
572,krasnoborsk,61.5598,45.934,270.81,96,7,1.52,RU,1680979148
573,flinders,-34.5833,150.8552,289.92,61,2,3.13,AU,1680978862
574,dwarka,22.2394,68.9678,298.44,74,41,4.3,IN,1680978876
575,cooma,-36.2333,149.1333,279.1,79,83,5.44,AU,1680979149
576,anadyr,64.75,177.4833,248.43,77,0,3.0,RU,1680978871
577,chapais,49.7834,-74.8492,274.03,72,100,5.03,CA,1680978882
578,haslett,42.747,-84.4011,286.55,45,40,2.06,US,1680979150
579,noumea,-22.2763,166.4572,298.15,99,3,2.86,NC,1680978944
580,dawlatabad,36.4141,64.9053,293.76,43,99,1.46,AF,1680979150
581,maues,-3.3836,-57.7186,302.0,72,85,1.95,BR,1680979151
582,san carlos de bariloche,-41.1456,-71.3082,295.62,30,0,3.6,AR,1680979151
583,paamiut,61.994,-49.6678,271.35,87,72,6.87,GL,1680979152
584,north bend,43.4065,-124.2243,286.99,76,75,3.6,US,1680979152
585,filingue,14.3521,3.3168,308.78,13,66,3.99,NE,1680978940
586,san felipe,10.3399,-68.7425,301.95,62,100,2.27,VE,1680978835
587,avera,33.194,-82.5271,281.88,95,100,6.76,US,1680978889
588,pathein,16.7833,94.7333,297.2,90,10,2.79,MM,1680979153
589,andros town,24.7,-77.7667,302.13,69,5,5.41,BS,1680978914
590,nadym,65.5333,72.5167,244.96,98,77,1.07,RU,1680978965
