City_ID,City,Lat,Lng,Max Temp,Humidity,Cloudiness,Wind Speed,Country,Date
0,rikitea,-23.1203,-134.9692,297.72,64,74,8.18,PF,1680973438
1,vaini,-21.2,-175.2,299.24,94,40,2.06,TO,1680973438
2,busselton,-33.65,115.3333,288.76,76,84,3.11,AU,1680973438
3,nioro,13.35,-15.75,311.63,11,62,2.91,GM,1680973439
4,hobart,-42.8794,147.3294,281.07,83,75,5.66,AU,1680973439
5,san felipe,10.3399,-68.7425,302.87,57,98,1.34,VE,1680973192
6,longyearbyen,78.2186,15.6401,265.06,73,75,8.23,SJ,1680973439
7,skjervoy,70.0311,20.9714,277.15,94,100,5.07,NO,1680973439
8,aasiaat,68.7098,-52.8699,263.31,83,68,3.08,GL,1680973440
9,phangnga,8.4509,98.5298,301.17,82,30,0.98,TH,1680973440
10,hermanus,-34.4187,19.2345,288.04,65,100,2.4,ZA,1680973441
11,hilo,19.7297,-155.09,294.05,90,100,1.34,US,1680973402
12,nikolskoye,59.7035,30.7861,283.09,95,29,2.06,RU,1680973441
13,odweyne,9.4092,45.064,300.62,33,24,6.45,SO,1680973441
14,humberto de campos,-2.5983,-43.4611,301.79,75,74,2.47,BR,1680973442
15,qaanaaq,77.484,-69.3632,250.58,76,0,2.45,GL,1680973442
16,cape town,-33.9258,18.4232,290.42,56,75,7.2,ZA,1680973443
17,bambous virieux,-20.3428,57.7575,299.29,89,40,3.6,MU,1680973163
18,kandava,57.0409,22.7747,279.95,73,99,2.99,LV,1680973443
19,meadow lake,34.8014,-106.5436,290.91,26,26,4.6,US,1680973444
20,punta arenas,-53.15,-70.9167,284.21,58,20,16.98,CL,1680973147
21,tuy hoa,13.0833,109.3,297.41,91,9,2.32,VN,1680973444
22,new norfolk,-42.7826,147.0587,280.87,74,77,1.79,AU,1680973444
23,dikson,73.5069,80.5464,241.05,99,39,1.32,RU,1680973445
24,aviles,43.5547,-5.9248,294.81,62,0,2.57,ES,1680973445
25,kahului,20.8947,-156.47,296.95,81,75,5.66,US,1680973210
26,mataura,-46.1927,168.8643,278.44,96,100,1.32,NZ,1680973446
27,dandong,40.1292,124.3947,278.55,75,0,2.66,CN,1680973225
28,barrow,71.2906,-156.7887,240.16,75,0,5.14,US,1680973446
29,mount gambier,-37.8333,140.7667,284.72,68,100,4.27,AU,1680973446
30,ancud,-41.8697,-73.8203,287.2,57,78,0.1,CL,1680973446
31,alofi,-19.0595,-169.9187,296.09,94,40,1.54,NU,1680973447
32,udachnyy,66.4167,112.4,245.58,100,100,2.57,RU,1680973447
33,guasdualito,7.2424,-70.7324,302.13,61,40,4.12,VE,1680973447
34,ushuaia,-54.8,-68.3,282.96,57,75,7.72,AR,1680973168
35,bathsheba,13.2167,-59.5167,302.49,61,20,10.29,BB,1680973448
36,yar-sale,66.8333,70.8333,244.16,100,58,1.4,RU,1680973448
37,atuona,-9.8,-139.0333,300.36,68,25,7.59,PF,1680973448
38,lianzhou,24.7811,112.3825,288.9,86,14,0.27,CN,1680973448
39,salalah,17.0151,54.0924,302.2,70,40,2.06,OM,1680973449
40,akureyri,65.6835,-18.0878,285.11,47,0,3.09,IS,1680973449
41,el estor,15.5333,-89.35,303.36,49,11,1.7,GT,1680973449
42,geraldton,-28.7667,114.6,287.38,82,0,2.57,AU,1680973450
43,cabo san lucas,22.8909,-109.9124,300.71,52,1,0.45,MX,1680973206
44,martapura,-3.4167,114.85,296.2,100,75,2.06,ID,1680973450
45,kodiak,57.79,-152.4072,270.8,65,100,4.76,US,1680973185
46,cidreira,-30.1811,-50.2056,295.35,73,88,4.91,BR,1680973450
47,mahebourg,-20.4081,57.7,299.31,89,40,3.6,MU,1680973450
48,bridgend,51.5058,-3.5772,287.09,60,100,0.89,GB,1680973451
49,beringovskiy,63.05,179.3167,253.43,98,78,1.99,RU,1680973451
50,east london,-33.0153,27.9116,292.67,94,100,4.63,ZA,1680973451
51,antofagasta,-23.65,-70.4,295.75,68,9,3.36,CL,1680973452
52,albany,42.6001,-73.9662,282.01,30,12,1.34,US,1680973452
53,sasaram,24.951,84.0149,302.49,16,99,2.47,IN,1680973452
54,port alfred,-33.5906,26.891,291.03,96,94,0.89,ZA,1680973452
55,kapaa,22.0752,-159.319,296.33,86,100,6.17,US,1680973453
56,curup,-3.4667,102.5333,292.94,98,100,0.62,ID,1680973453
57,lebu,-37.6167,-73.65,289.92,59,26,4.79,CL,1680973453
58,kodinsk,58.6881,99.1844,264.85,93,100,3.46,RU,1680973453
59,chissamba,-12.1667,17.3333,292.13,84,100,1.5,AO,1680973453
60,sabha,27.0377,14.4283,300.69,13,27,4.3,LY,1680973454
61,georgetown,5.4112,100.3354,300.12,88,20,2.24,MY,1680973454
62,yellowknife,62.456,-114.3525,276.44,70,20,3.6,CA,1680973454
63,necochea,-38.5473,-58.7368,299.14,41,31,3.05,AR,1680973320
64,port elizabeth,-33.918,25.5701,291.54,89,100,5.14,ZA,1680973454
65,lazaro cardenas,17.9583,-102.2,303.26,40,0,2.63,MX,1680973455
66,tual,-5.6667,132.75,301.1,77,100,4.87,ID,1680973455
67,dunedin,-45.8742,170.5036,283.83,79,100,7.98,NZ,1680973455
68,fortuna,40.5982,-124.1573,284.78,83,100,1.34,US,1680973455
69,seoul,37.5683,126.9778,277.93,68,0,1.54,KR,1680973362
70,elizabeth city,36.2946,-76.2511,283.16,86,100,9.26,US,1680973456
71,rawah,34.4816,41.9093,296.18,21,85,3.01,IQ,1680973456
72,hithadhoo,-0.6,73.0833,301.34,65,24,0.92,MV,1680973188
73,mar del plata,-38.0023,-57.5575,298.68,55,0,5.66,AR,1680973325
74,te anau,-45.4167,167.7167,280.58,92,93,0.62,NZ,1680973457
75,bengkulu,-3.8004,102.2655,297.55,90,92,1.68,ID,1680973349
76,dedougou,12.4667,-3.4667,307.04,28,100,3.89,BF,1680973457
77,provideniya,64.3833,-173.3,246.27,91,28,2.58,RU,1680973457
78,bethel,41.3712,-73.414,283.26,28,0,3.6,US,1680973457
79,staryy oskol,51.2967,37.8417,284.52,59,100,3.09,RU,1680973333
80,lejanias,3.5251,-74.0216,297.9,84,97,2.55,CO,1680973458
81,hamilton,39.1834,-84.5333,285.31,38,0,7.2,US,1680973458
82,vanimo,-2.6741,141.3028,298.16,90,100,2.9,PG,1680973458
83,sao filipe,14.8961,-24.4956,295.65,75,96,6.79,CV,1680973459
84,pangnirtung,66.1451,-65.7125,249.15,84,0,2.57,CA,1680973459
85,great yarmouth,52.6083,1.7305,285.41,82,100,3.05,GB,1680973459
86,jurado,7.1053,-77.7641,304.32,58,77,1.53,CO,1680973459
87,puerto ayora,-0.7393,-90.3518,303.13,85,80,3.13,EC,1680973425
88,turukhansk,65.8167,87.9833,247.56,90,7,3.54,RU,1680973460
89,tasiilaq,65.6145,-37.6368,273.62,97,100,12.59,GL,1680973460
90,ponta do sol,32.6667,-17.1,293.22,63,92,0.47,PT,1680973460
91,ca mau,9.1769,105.15,300.34,74,35,3.42,VN,1680973460
92,ketchikan,55.3422,-131.6461,279.14,97,100,5.47,US,1680973307
93,beaver dam,43.4578,-88.8373,286.34,51,0,4.63,US,1680973205
94,rawson,-43.3002,-65.1023,296.44,33,100,3.21,AR,1680973289
95,esperance,-33.8667,121.9,288.36,84,96,6.06,AU,1680973461
96,saskylakh,71.9167,114.0833,252.76,99,100,4.16,RU,1680973461
97,lago da pedra,-4.3333,-45.1667,303.19,69,92,0.8,BR,1680973462
98,huangmei,30.1924,116.025,286.06,59,1,1.61,CN,1680973462
99,bluff,-46.6,168.3333,281.7,88,100,3.34,NZ,1680973462
100,aklavik,68.2191,-135.0107,249.15,84,40,2.06,CA,1680973462
101,codrington,-38.2667,141.9667,285.52,64,100,8.07,AU,1680973462
102,orotukan,62.2667,151.7,253.69,94,11,2.88,RU,1680973463
103,markala,13.7021,-6.0659,305.72,32,97,6.61,ML,1680973463
104,henties bay,-22.116,14.2845,289.64,88,31,5.9,NA,1680973463
105,sladkovo,55.5284,70.3385,271.58,56,35,5.14,RU,1680973463
106,meulaboh,4.1363,96.1285,298.73,87,98,1.97,ID,1680973191
107,kloulklubed,7.0419,134.2556,299.76,82,100,5.24,PW,1680973463
108,kambove,-10.8764,26.5969,290.62,96,95,1.77,CD,1680973464
109,kibaya,-5.3,36.5667,290.88,67,27,2.48,TZ,1680973464
110,flinders,-34.5833,150.8552,289.92,63,5,4.02,AU,1680973194
111,victoria,22.2855,114.1577,293.89,82,57,0.89,HK,1680972824
112,ribeira grande,38.5167,-28.7,289.37,63,75,8.05,PT,1680973465
113,kalinovskaya,43.5758,45.5192,283.75,91,100,1.19,RU,1680973465
114,khatanga,71.9667,102.5,250.86,96,99,3.74,RU,1680973465
115,avarua,-21.2078,-159.775,300.18,78,40,3.6,CK,1680973465
116,jamestown,42.097,-79.2353,281.49,31,0,1.79,US,1680973354
117,saldanha,-33.0117,17.9442,290.18,67,63,8.61,ZA,1680973466
118,dawei,14.0833,98.2,296.96,89,99,1.37,MM,1680973466
119,nome,64.5011,-165.4064,241.19,83,0,0.0,US,1680973466
120,kaeo,-35.1,173.7833,286.11,95,71,1.8,NZ,1680973466
121,espinosa,-14.9261,-42.8192,310.87,23,47,0.95,BR,1680973383
122,innisfail,-17.5333,146.0333,298.25,90,83,1.34,AU,1680973467
123,walvis bay,-22.9575,14.5053,290.55,78,30,9.09,NA,1680973179
124,beruwala,6.4788,79.9828,298.85,83,86,1.61,LK,1680973467
125,chuy,-33.6971,-53.4616,296.92,54,8,3.61,UY,1680973467
126,grand gaube,-20.0064,57.6608,299.37,77,53,2.24,MU,1680973468
127,norman wells,65.282,-126.8329,264.17,73,75,2.06,CA,1680973468
128,havre-saint-pierre,50.2334,-63.5986,268.35,39,0,7.2,CA,1680973468
129,mosquera,4.7059,-74.2302,291.2,63,75,2.06,CO,1680973468
130,okhotsk,59.3833,143.3,254.86,95,18,3.67,RU,1680973468
131,arraial do cabo,-22.9661,-42.0278,298.13,100,100,2.57,BR,1680973469
132,tessalit,20.1986,1.0114,304.82,9,71,6.06,ML,1680973469
133,castro,-24.7911,-50.0119,291.77,88,100,1.79,BR,1680973469
134,miura,35.14,139.6192,283.14,52,80,4.06,JP,1680973469
135,nuuk,64.1835,-51.7216,274.49,75,40,4.12,GL,1680973242
136,anadyr,64.75,177.4833,244.43,83,20,3.0,RU,1680973470
137,goderich,43.7501,-81.7165,277.54,60,85,4.63,CA,1680973470
138,eucaliptus,-17.5833,-67.5167,288.07,33,37,1.21,BO,1680973470
139,koslan,63.4564,48.8989,273.15,90,84,4.17,RU,1680973470
140,sancti spiritus,21.9297,-79.4425,305.91,32,2,3.53,CU,1680973471
141,huaicheng,23.9051,112.1931,290.47,81,61,0.92,CN,1680973471
142,kruisfontein,-34.0033,24.7314,290.31,88,100,5.98,ZA,1680973471
143,paita,-5.0892,-81.1144,301.55,68,43,1.52,PE,1680973472
144,tuktoyaktuk,69.4541,-133.0374,247.15,84,75,3.09,CA,1680973472
145,carnarvon,-24.8667,113.6333,295.04,67,1,5.92,AU,1680973472
146,lithgow,-33.4833,150.15,280.06,81,23,7.0,AU,1680973472
147,husavik,66.0449,-17.3389,276.54,94,88,7.03,IS,1680973250
148,chitrakonda,18.1167,82.0833,300.19,50,74,1.02,IN,1680973473
149,dwarka,22.2394,68.9678,298.91,70,19,5.43,IN,1680973473
150,saint-philippe,-21.3585,55.7679,299.92,79,100,3.49,RE,1680973474
151,mafinga,-7.25,35.0667,295.59,67,38,2.2,TZ,1680973474
152,faanui,-16.4833,-151.75,301.59,75,30,9.96,PF,1680973475
153,isangel,-19.55,169.2667,298.86,87,40,1.62,VU,1680973475
154,kavieng,-2.5744,150.7967,299.51,82,100,4.15,PG,1680973475
155,kiunga,-6.1219,141.2906,295.79,100,100,0.53,PG,1680973476
156,bredasdorp,-34.5322,20.0403,288.79,63,100,1.54,ZA,1680973476
157,bontang,0.1333,117.5,298.87,85,82,1.2,ID,1680973477
158,puro,12.4841,123.3827,299.21,80,65,5.46,PH,1680973477
159,ninghai,29.2892,121.4247,281.45,69,0,1.21,CN,1680973477
160,wajima,37.4,136.9,279.81,50,53,9.77,JP,1680973477
161,harper,4.375,-7.7169,301.3,77,92,3.91,LR,1680973478
162,balabac,7.9868,117.0645,300.36,76,69,2.65,PH,1680973478
163,fairbanks,64.8378,-147.7164,262.16,71,100,0.55,US,1680973393
164,thompson,55.7435,-97.8558,273.24,55,20,5.66,CA,1680973243
165,gazli,40.1333,63.45,294.64,21,28,3.74,UZ,1680973252
166,springbok,-29.6643,17.8865,285.98,51,14,4.43,ZA,1680973479
167,muzhi,65.3667,64.6667,262.41,96,100,2.82,RU,1680973479
168,bolobo,-2.1667,16.2333,295.68,91,100,4.08,CD,1680973479
169,richards bay,-28.783,32.0377,294.9,93,28,1.41,ZA,1680973244
170,kapoeta,4.7717,33.5903,304.61,36,96,7.2,SS,1680973480
171,lusambo,-4.9667,23.45,293.73,98,100,0.22,CD,1680973480
172,chapais,49.7834,-74.8492,272.03,74,100,4.2,CA,1680973334
173,cherskiy,68.75,161.3,244.08,100,83,1.23,RU,1680973481
174,talnakh,69.4865,88.3972,244.93,91,22,0.96,RU,1680973296
175,vao,-22.6667,167.4833,298.3,75,1,4.42,NC,1680973481
176,pevek,69.7008,170.3133,241.72,100,97,2.12,RU,1680973481
177,los llanos de aridane,28.6585,-17.9182,292.01,67,75,3.58,ES,1680973481
178,butaritari,3.0707,172.7902,300.25,83,43,7.12,KI,1680973482
179,ndele,8.4109,20.6473,306.88,11,46,2.46,CF,1680973482
180,narsaq,60.9167,-46.05,277.27,67,47,0.7,GL,1680973482
181,port hardy,50.6996,-127.4199,280.15,100,100,4.12,CA,1680973220
182,alquizar,22.8058,-82.5842,303.42,47,3,3.38,CU,1680973483
183,ayan,56.45,138.1667,259.25,96,60,1.67,RU,1680973483
184,la esperanza,14.8667,-91.5667,294.55,46,0,5.14,GT,1680973483
185,banikoara,11.2985,2.4386,312.76,10,100,1.95,BJ,1680973483
186,luwuk,-0.9516,122.7875,298.71,80,100,1.79,ID,1680973484
187,chokurdakh,70.6333,147.9167,248.46,97,81,2.7,RU,1680973484
188,saint george,37.1041,-113.5841,289.5,29,0,0.0,US,1680973256
189,vila franca do campo,37.7167,-25.4333,288.38,58,70,4.22,PT,1680973348
190,chiredzi,-21.05,31.6667,298.51,38,1,3.1,ZW,1680973484
191,spirit river,55.7833,-118.8361,276.39,69,47,3.45,CA,1680973485
192,christchurch,-43.5333,172.6333,286.43,70,20,3.6,NZ,1680973201
193,sorong,-0.8833,131.25,300.56,78,100,3.57,ID,1680973485
194,askiz,53.1319,90.5264,267.82,72,88,8.71,RU,1680973485
195,olafsvik,64.8945,-23.7142,279.89,80,79,10.62,IS,1680973485
196,lasa,46.6166,10.7002,284.09,87,99,2.66,IT,1680973486
197,marechal candido rondon,-24.5561,-54.0567,297.23,75,47,0.47,BR,1680973486
198,batemans bay,-35.7167,150.1833,286.53,65,44,4.07,AU,1680973397
199,nanyamba,-10.6833,39.8333,295.86,97,96,1.19,TZ,1680973486
200,mehran,33.1222,46.1646,299.51,21,0,3.17,IR,1680973486
201,leh,34.1667,77.5833,265.13,56,0,1.1,IN,1680973487
202,savonlinna,61.8699,28.88,276.18,60,0,1.03,FI,1680973427
203,toamasina,-18.1667,49.3833,300.15,83,75,2.06,MG,1680973487
204,rockwall,32.9001,-96.4003,292.32,60,100,3.09,US,1680973487
205,clyde river,70.4692,-68.5914,254.28,78,100,15.43,CA,1680973487
206,kavaratti,10.5669,72.642,301.47,71,5,2.73,IN,1680973487
207,sitka,57.0531,-135.33,280.09,61,75,5.66,US,1680973488
208,cayenne,4.9333,-52.3333,304.17,55,40,5.14,GF,1680973204
209,hohhot,40.8106,111.6522,277.31,65,0,3.0,CN,1680973209
210,coquimbo,-29.9533,-71.3436,290.0,82,100,4.12,CL,1680973489
211,hasaki,35.7333,140.8333,281.37,42,81,10.51,JP,1680973191
212,mogadishu,2.0371,45.3438,301.52,73,41,7.47,SO,1680973295
213,ribeira brava,32.65,-17.0667,293.22,65,93,0.49,PT,1680973489
214,barentu,15.1139,37.5928,303.93,28,53,7.38,ER,1680973489
215,verkh-usugli,52.7,115.1667,269.03,50,30,1.86,RU,1680973489
216,avera,33.194,-82.5271,281.88,95,100,6.17,US,1680973490
217,laguna,38.421,-121.4238,289.86,63,0,2.57,US,1680973490
218,roald,62.5833,6.1333,285.66,71,0,8.23,NO,1680973291
219,pochutla,15.7432,-96.4661,305.27,39,0,3.5,MX,1680973490
220,kurilsk,45.2333,147.8833,272.68,91,100,4.66,RU,1680973490
221,tripoli,32.8752,13.1875,288.96,71,18,6.44,LY,1680973355
222,makasar,-5.14,119.4221,297.18,88,20,1.54,ID,1680973210
223,porto real do colegio,-10.1858,-36.84,301.38,75,98,4.85,BR,1680973491
224,mtinko,-4.55,34.85,291.7,67,43,2.15,TZ,1680973491
225,maldonado,-34.6667,-54.9167,296.81,40,1,1.5,UY,1680973286
226,harsin,34.2721,47.5861,288.6,44,64,1.94,IR,1680973491
227,san cristobal,7.7669,-72.225,298.25,53,100,3.17,VE,1680973492
228,eastbourne,50.7687,0.2845,286.26,72,100,1.34,GB,1680973492
229,belmonte,-15.8631,-38.8828,301.53,70,92,3.46,BR,1680973492
230,upernavik,72.7868,-56.1549,250.03,87,100,7.48,GL,1680973492
231,khandyga,62.6667,135.6,265.89,79,100,3.31,RU,1680973493
232,bud,39.447,-86.1758,287.41,38,85,5.81,US,1680973493
233,sao joao da barra,-21.6403,-41.0511,304.2,75,77,1.52,BR,1680973493
234,acs,47.7123,18.0113,280.38,81,100,1.54,HU,1680973493
235,melivoia,39.75,22.8,283.67,89,69,2.76,GR,1680973494
236,kununurra,-15.7667,128.7333,299.14,83,100,1.54,AU,1680973494
237,grand baie,-20.0182,57.5802,299.41,77,52,2.24,MU,1680973494
238,mbanza-ngungu,-5.25,14.8667,295.63,88,100,1.47,CD,1680973494
239,san patricio,28.017,-97.5169,290.12,79,99,3.32,US,1680973495
240,stornoway,58.2093,-6.3865,285.13,65,86,5.14,GB,1680973495
241,haines junction,60.7522,-137.5108,268.12,74,100,0.51,CA,1680973495
242,vallenar,-28.5708,-70.7581,301.3,35,0,3.01,CL,1680973495
243,camopi,3.1655,-52.3158,305.84,41,55,1.36,GF,1680973495
244,vostok,46.4856,135.8833,267.15,67,2,1.46,RU,1680973496
245,jucurutu,-6.0339,-37.0203,306.17,46,93,1.72,BR,1680973496
246,vardo,70.3705,31.1107,275.14,87,100,7.72,NO,1680973255
247,tutoia,-2.7619,-42.2744,301.99,71,91,3.32,BR,1680973496
248,mecca,21.4267,39.8261,301.62,49,33,4.05,SA,1680973497
249,puerto rondon,6.2805,-71.1,299.48,63,100,0.74,CO,1680973497
250,muzaffarabad,34.37,73.4711,289.78,51,3,2.9,PK,1680973498
251,oyama,36.3,139.8,284.03,43,0,7.73,JP,1680973211
252,ambikapur,23.1167,83.2,298.99,28,96,0.54,IN,1680973498
253,acajutla,13.5928,-89.8275,304.25,50,6,4.27,SV,1680973498
254,port blair,11.6667,92.75,301.17,83,40,0.0,IN,1680973499
255,santander,43.4647,-3.8044,294.1,67,0,3.58,ES,1680973499
256,lorengau,-2.0226,147.2712,298.75,87,100,3.01,PG,1680973293
257,yerbogachen,61.2767,108.0108,255.63,93,73,4.4,RU,1680973499
258,haimen,23.1935,116.6142,290.09,58,51,8.58,CN,1680973499
259,tura,25.5198,90.2201,296.63,31,88,1.57,IN,1680973500
260,vila velha,-20.3297,-40.2925,306.12,72,40,2.57,BR,1680973256
261,maksatikha,57.797,35.8825,278.43,63,10,1.6,RU,1680973500
262,cardston,49.2,-113.3019,282.23,53,55,5.14,CA,1680973224
263,lavrentiya,65.5833,-171.0,250.34,93,100,2.76,RU,1680973500
264,rio grande,-32.035,-52.0986,299.21,64,19,4.47,BR,1680973501
265,vidim,56.4088,103.1106,261.67,91,83,1.71,RU,1680973501
266,pangody,65.85,74.4859,245.0,94,10,3.02,RU,1680973501
267,taitung,22.7583,121.1444,290.99,75,87,4.31,TW,1680973502
268,portland,45.5234,-122.6762,284.0,81,100,5.14,US,1680973413
269,nikolayevsk-na-amure,53.1406,140.73,267.47,90,100,1.77,RU,1680973502
270,susangerd,31.5608,48.1831,301.55,13,0,4.29,IR,1680973503
271,touros,-5.1989,-35.4608,302.0,74,97,4.91,BR,1680973445
272,cockburn town,21.4612,-71.1419,300.13,61,40,2.57,TC,1680973259
273,wanning,18.8003,110.3967,296.48,90,100,5.13,CN,1680973503
274,solntsevo,51.4185,36.7499,283.9,64,95,3.02,RU,1680973503
275,inhambane,-23.865,35.3833,297.52,86,0,4.07,MZ,1680973504
276,souillac,-20.5167,57.5167,299.36,89,40,3.6,MU,1680973504
277,ilulissat,69.2167,-51.1,267.16,79,75,4.63,GL,1680973505
278,veraval,20.9,70.3667,299.38,69,21,4.89,IN,1680973505
279,itacoatiara,-3.1431,-58.4442,303.93,60,73,1.89,BR,1680973505
280,hambantota,6.1241,81.1185,300.33,71,97,3.73,LK,1680973505
281,tulun,54.5611,100.5792,268.27,68,100,1.48,RU,1680973505
282,iqaluit,63.7506,-68.5145,256.0,71,40,6.69,CA,1680973292
283,abu dhabi,24.4667,54.3667,299.79,54,0,5.66,AE,1680973356
284,baherden,38.4362,57.4316,296.27,31,75,3.28,TM,1680973506
285,khuzhir,53.1939,107.3397,265.67,78,85,2.19,RU,1680973506
286,port macquarie,-31.4333,152.9167,286.42,75,0,1.32,AU,1680973242
287,dingle,10.9995,122.6711,297.18,84,74,2.71,PH,1680973507
288,tommot,58.9564,126.2925,263.28,95,100,2.98,RU,1680973507
289,baturinskaya,45.7927,39.3707,284.79,92,100,3.7,RU,1680973507
290,inongo,-1.95,18.2667,298.24,79,100,2.61,CD,1680973508
291,zhangye,38.9342,100.4517,283.75,16,6,0.93,CN,1680973508
292,gore,-46.1028,168.9436,278.16,95,100,1.15,NZ,1680973508
293,caucaia,-3.7361,-38.6531,299.84,83,75,2.57,BR,1680973468
294,crossville,35.949,-85.0269,280.91,96,100,3.09,US,1680973509
295,srednekolymsk,67.45,153.6833,250.46,100,99,2.64,RU,1680973509
296,rincon,32.296,-81.2354,288.63,93,100,4.63,US,1680973510
297,lata,40.1629,-8.3327,299.77,35,84,3.38,PT,1680973313
298,bargi,22.9833,79.8667,298.18,46,91,5.59,IN,1680973510
299,luderitz,-26.6481,15.1594,290.35,63,100,13.31,NA,1680973510
300,yermakovskoye,53.2831,92.4003,270.61,73,100,7.86,RU,1680973511
301,lompoc,34.6391,-120.4579,291.27,82,96,1.34,US,1680973249
302,aloleng,16.1307,119.7824,299.84,78,4,2.02,PH,1680973511
303,constitucion,-35.3333,-72.4167,293.69,44,20,4.3,CL,1680973511
304,oussouye,12.485,-16.5469,311.25,37,49,7.98,SN,1680973511
305,novyy svit,47.8059,38.0211,285.52,74,91,4.37,UA,1680973512
306,lagoa,39.05,-27.9833,287.46,67,100,11.14,PT,1680973512
307,hutchinson,38.0608,-97.9298,292.06,26,0,7.72,US,1680973512
308,ponta delgada,37.7333,-25.6667,288.55,63,20,6.17,PT,1680973513
309,jaguarari,-10.2639,-40.1958,305.71,29,87,4.33,BR,1680973513
310,buta,2.7858,24.73,301.32,59,100,0.87,CD,1680973513
311,saint anthony,45.0205,-93.218,285.51,52,40,3.6,US,1680973227
312,yumen,40.2833,97.2,284.05,13,63,8.33,CN,1680973514
313,novaya zaimka,56.4857,66.9241,273.07,60,6,3.41,RU,1680973514
314,hami,42.8,93.45,285.67,28,28,3.45,CN,1680973515
315,hovd,48.0056,91.6419,278.04,31,30,9.26,MN,1680973515
316,tocopilla,-22.092,-70.1979,296.06,70,3,2.01,CL,1680973515
317,ahipara,-35.1667,173.1667,288.4,93,96,2.94,NZ,1680973515
318,assiniboia,49.6334,-105.9845,275.05,69,98,4.12,CA,1680973317
319,tiksi,71.6872,128.8694,251.03,100,76,2.46,RU,1680973516
320,somerton,32.5964,-114.7097,298.71,21,0,1.54,US,1680973516
321,troitsko-pechorsk,62.7084,56.1964,273.57,94,100,2.54,RU,1680973516
322,andros town,24.7,-77.7667,300.13,68,6,5.79,BS,1680973517
323,kyren,51.6828,102.1408,270.87,82,99,0.83,RU,1680973517
324,ixtapa,20.7,-105.2,298.72,57,0,3.09,MX,1680973517
325,libertador general san martin,-23.8064,-64.7876,302.64,43,6,2.13,AR,1680973517
326,phan thiet,10.9333,108.1,297.98,87,10,4.51,VN,1680973517
327,san quintin,30.4833,-115.95,289.58,67,2,5.06,MX,1680973518
328,kumla,59.1277,15.1434,285.12,35,0,2.57,SE,1680973518
329,tajpur,29.1667,78.4833,297.8,14,0,0.32,IN,1680973519
330,dabat,12.9842,37.765,294.36,21,97,1.88,ET,1680973519
331,taltal,-25.4,-70.4833,291.61,82,8,1.1,CL,1680973256
332,kamnik,46.2259,14.6121,282.54,74,100,1.03,SI,1680973520
333,stromness,58.965,-3.296,281.13,82,68,8.49,GB,1680973289
334,magadan,59.5667,150.8,259.73,85,34,3.03,RU,1680973520
335,guerrero negro,27.9769,-114.0611,290.76,59,12,5.62,MX,1680973520
336,naze,28.3667,129.4833,286.66,60,1,6.89,JP,1680973521
337,torbay,47.6666,-52.7314,275.59,65,75,8.23,CA,1680973521
338,san andres,12.5847,-81.7006,303.16,62,20,5.14,CO,1680973521
339,uspenka,48.3903,39.1619,285.81,65,100,4.5,UA,1680973521
340,ahuimanu,21.4447,-157.8378,295.99,83,75,2.57,US,1680973521
341,bayonet point,28.3267,-82.6834,304.14,64,98,0.89,US,1680973522
342,lingao,19.9103,109.6859,294.83,87,100,6.55,CN,1680973522
343,gorlitz,51.1552,14.9885,280.51,79,90,2.24,DE,1680973523
344,logan lake,50.4998,-120.8025,278.06,92,98,5.08,CA,1680973523
345,sechura,-5.5569,-80.8222,302.56,63,76,1.91,PE,1680973523
346,omsukchan,62.5333,155.8,250.21,100,35,1.5,RU,1680973523
347,inzer,54.2167,57.5556,271.57,90,2,0.61,RU,1680973524
348,montepuez,-13.1256,38.9997,294.23,97,100,1.74,MZ,1680973524
349,katherine,-14.4667,132.2667,297.33,94,40,2.06,AU,1680973524
350,verkhniy baskunchak,48.2256,46.7217,284.81,52,99,4.73,RU,1680973526
351,ambon,-3.6954,128.1814,297.23,94,20,2.06,ID,1680973526
352,tabou,4.423,-7.3528,301.31,77,88,3.47,CI,1680973526
353,petropavl,54.8753,69.1628,271.88,49,17,4.76,KZ,1680973527
354,piopio,-38.4667,175.0167,280.82,99,58,0.77,NZ,1680973527
355,pacific grove,36.6177,-121.9166,287.88,85,75,1.79,US,1680973527
356,phatthalung,7.5,100.0833,299.66,80,86,2.34,TH,1680973527
357,corrente,-3.7367,-43.3394,301.92,78,84,0.52,BR,1680973527
358,znamenskoye,57.1281,73.8282,272.79,70,100,4.32,RU,1680973527
359,harsud,22.1,76.7333,303.27,36,93,1.79,IN,1680973528
360,ust-nera,64.5667,143.2,250.25,99,92,1.35,RU,1680973253
361,marsa matruh,31.3525,27.2453,291.26,77,40,5.66,EG,1680973528
362,aswan,24.0934,32.907,308.76,15,0,4.12,EG,1680973529
363,samarai,-10.6167,150.6667,299.97,82,100,2.19,PG,1680973529
364,klaksvik,62.2266,-6.589,282.66,87,95,12.18,FO,1680973529
365,nazas,25.2333,-104.1333,295.38,40,3,2.4,MX,1680973529
366,xining,36.6167,101.7667,279.79,33,21,2.03,CN,1680973529
367,airai,-8.9266,125.4092,287.87,95,100,0.47,TL,1680973530
368,korla,41.7597,86.1469,286.11,20,0,0.42,CN,1680973303
369,margate,51.3813,1.3862,283.88,83,100,2.24,GB,1680973530
370,tartagal,-22.5164,-63.8013,301.41,47,5,2.05,AR,1680973530
371,severo-yeniseyskiy,60.3725,93.0408,262.89,93,100,4.76,RU,1680973531
372,zaysan,47.4667,84.8667,272.97,74,98,5.26,KZ,1680973531
373,afsin,38.2477,36.914,283.51,50,90,0.66,TR,1680973531
374,talaya,61.3833,152.75,247.21,100,74,0.97,RU,1680973531
375,daru,-9.0763,143.2092,298.67,87,99,1.66,PG,1680973531
376,dera ismail khan,31.8327,70.9024,300.46,23,0,2.23,PK,1680973532
377,mariani,26.6667,94.3333,295.51,59,19,1.81,IN,1680973532
378,cody,44.5263,-109.0565,282.55,42,0,3.13,US,1680973532
379,kaitangata,-46.2817,169.8464,283.67,67,100,3.82,NZ,1680973532
380,wharton,29.3116,-96.1027,288.62,98,93,4.64,US,1680973450
381,santa isabel do rio negro,-0.4139,-65.0192,303.15,59,100,0.75,BR,1680973532
382,quatre cocos,-20.2078,57.7625,299.21,79,45,3.83,MU,1680973532
383,tahta,26.7693,31.5021,306.09,7,95,3.43,EG,1680973533
384,acarau,-2.8856,-40.12,301.47,75,75,3.19,BR,1680973533
385,jumla,29.2747,82.1838,280.67,66,52,1.99,NP,1680973533
386,jati,24.3539,68.2671,300.1,47,9,5.81,PK,1680973533
387,paramonga,-10.6667,-77.8333,300.24,69,99,4.24,PE,1680973534
388,simpang,-1.2667,104.0833,297.22,94,45,0.96,ID,1680973534
389,moctezuma,29.8,-109.6667,297.04,13,31,2.01,MX,1680973534
390,tambilil,5.9622,124.6697,299.1,85,95,1.07,PH,1680973534
391,yeppoon,-23.1333,150.7333,290.03,47,0,2.19,AU,1680973535
392,dhangadhi,28.7079,80.5961,297.58,15,43,2.77,NP,1680973382
393,nanortalik,60.1432,-45.2371,272.49,79,100,1.42,GL,1680973535
394,ostrovnoy,68.0531,39.5131,274.93,97,100,9.45,RU,1680973535
395,rocha,-34.4833,-54.3333,297.92,42,2,1.68,UY,1680973346
396,sal rei,16.1833,-22.9167,297.26,60,40,9.26,CV,1680973535
397,muros,42.7762,-9.0603,299.08,70,97,1.79,ES,1680973300
398,belyy yar,53.6039,91.3903,270.09,86,0,2.0,RU,1680973536
399,ferrol,43.4832,-8.2369,292.17,74,99,1.53,ES,1680973536
400,aborlan,9.4352,118.5492,298.44,84,38,1.67,PH,1680973537
401,college,64.8569,-147.8028,262.15,72,75,2.06,US,1680973282
402,siguiri,11.6667,-9.5,308.09,29,93,4.03,GN,1680973537
403,ngunguru,-35.6167,174.5,290.05,87,46,3.8,NZ,1680973537
404,andreapol,56.6513,32.2664,281.24,68,65,1.1,RU,1680973538
405,mopipi,-21.1833,24.8833,301.11,27,59,0.62,BW,1680973538
406,machico,32.7,-16.7667,293.22,62,75,3.09,PT,1680973538
407,ningyang,35.7642,116.7914,283.26,73,0,4.0,CN,1680973538
408,filingue,14.3521,3.3168,313.2,10,100,4.03,NE,1680973539
409,nelson bay,-32.7167,152.15,291.48,66,0,6.71,AU,1680973539
410,katsuura,35.1333,140.3,282.82,53,95,5.53,JP,1680973539
411,abeche,13.8292,20.8324,306.78,9,4,2.22,TD,1680973540
412,la ronge,55.1001,-105.2842,274.29,55,0,4.63,CA,1680973540
413,breves,-1.6822,-50.4803,299.38,88,89,1.21,BR,1680973541
414,tagusao,9.1924,117.8141,299.5,81,23,2.45,PH,1680973541
415,matara,5.9485,80.5353,298.86,83,95,3.25,LK,1680973335
416,elliot lake,46.3834,-82.6331,276.62,46,58,1.97,CA,1680973542
417,puerto ayacucho,5.6639,-67.6236,299.61,76,100,2.65,VE,1680973542
418,vestmanna,62.1564,-7.1664,281.66,76,87,9.77,FO,1680973542
419,bonthe,7.5264,-12.505,302.46,66,90,6.46,SL,1680973543
420,maryville,35.7565,-83.9705,282.66,94,100,5.14,US,1680973543
421,gamba,-2.65,10.0,301.04,78,99,4.25,GA,1680973543
422,erzin,36.9559,36.2,288.02,56,100,1.2,TR,1680973543
423,puerto escondido,15.85,-97.0667,303.61,70,20,3.6,MX,1680973543
424,halifax,44.6453,-63.5724,278.53,40,52,6.17,CA,1680973544
425,noumea,-22.2763,166.4572,298.71,99,14,2.53,NC,1680973544
426,mirador,-6.3708,-44.3631,302.91,71,82,1.09,BR,1680973544
427,svetlogorsk,52.6333,29.7333,283.87,78,100,2.9,BY,1680973545
428,murray bridge,-35.1167,139.2667,286.55,72,63,4.6,AU,1680973545
429,san miguel,13.4833,-88.1833,309.41,26,3,1.52,SV,1680973545
430,porto santo,33.072,-16.3415,292.36,52,20,3.09,PT,1680973546
431,marawi,7.9986,124.2928,293.16,92,94,1.06,PH,1680973546
432,luocheng,29.3848,104.0286,289.76,67,83,0.51,CN,1680973546
433,mandalgovi,45.7625,106.2708,278.63,26,79,4.2,MN,1680973547
434,havoysund,70.9963,24.6622,275.28,80,100,5.68,NO,1680973547
435,mattru,7.6244,-11.8332,303.84,60,88,3.04,SL,1680973547
436,uruzgan,32.8333,66.0,289.61,33,0,0.59,AF,1680973548
437,wamba,8.9333,8.6,308.8,32,93,1.74,NG,1680973548
438,vieste,41.8825,16.175,284.05,80,100,3.58,IT,1680973548
439,teacapan,22.55,-105.75,298.53,41,0,2.93,MX,1680973548
440,pokrovskoye,47.4157,38.8971,286.6,74,95,5.61,RU,1680973549
441,leningradskiy,69.3833,178.4167,247.83,91,85,4.96,RU,1680973292
442,las choapas,17.9333,-94.0833,303.06,58,4,6.2,MX,1680973308
443,vredendal,-31.6683,18.5012,289.11,64,0,8.82,ZA,1680973549
444,atar,20.5169,-13.0499,304.81,13,100,2.51,MR,1680973549
445,san policarpo,12.1791,125.5072,298.98,83,73,4.04,PH,1680973550
446,tazovskiy,67.4667,78.7,244.25,94,7,4.12,RU,1680973550
447,mazyr,52.0495,29.2456,284.38,79,100,2.35,BY,1680973550
448,sinnamary,5.3833,-52.95,301.25,64,94,3.92,GF,1680973551
449,aksha,50.2814,113.2867,274.61,65,64,1.53,RU,1680973551
450,barcelona,41.3888,2.159,292.14,57,20,4.63,ES,1680973310
451,marzuq,14.4,46.4667,296.36,62,26,4.67,YE,1680973551
452,half moon bay,37.4636,-122.4286,288.61,82,100,3.09,US,1680973551
453,yulara,-25.2406,130.9889,293.41,38,27,5.28,AU,1680973552
454,gornopravdinsk,60.05,69.9,273.84,95,100,4.42,RU,1680973552
455,camacha,33.0833,-16.3333,290.83,52,20,3.09,PT,1680973553
456,abha,18.2164,42.5053,292.05,72,40,4.12,SA,1680973553
457,boyuibe,-20.4167,-63.2833,301.26,39,20,2.88,BO,1680973553
458,nagua,19.3832,-69.8474,303.32,69,20,5.14,DO,1680973553
459,morondava,-20.2833,44.2833,300.04,76,97,2.75,MG,1680973553
460,northam,51.0333,-4.2167,285.71,61,100,6.39,GB,1680973554
461,gat,31.61,34.7642,298.93,100,59,3.23,IL,1680973554
462,diffa,13.3154,12.6113,311.53,14,99,6.32,NE,1680973554
463,mandsaur,24.0667,75.0667,302.08,19,22,1.47,IN,1680973554
464,pahalgam,34.0333,75.3333,274.75,56,26,5.27,IN,1680973555
465,taoudenni,22.6783,-3.9836,305.3,11,100,3.31,ML,1680973555
466,palmer,42.1584,-72.3287,283.41,26,40,2.57,US,1680973555
467,schieder-schwalenberg,51.8771,9.1954,282.41,85,100,2.01,DE,1680973555
468,nouadhibou,20.931,-17.0347,294.14,68,0,9.77,MR,1680973555
469,turinsk,58.0458,63.696,273.42,79,6,2.6,RU,1680973556
470,kislovodsk,43.9133,42.7208,279.95,92,100,1.39,RU,1680973556
471,beira,-19.8436,34.8389,300.2,88,20,5.36,MZ,1680973556
472,pontianak,-0.0333,109.3333,298.14,94,20,1.03,ID,1680973556
473,port-cartier,50.0334,-66.8654,270.79,57,40,6.45,CA,1680973557
474,kupang,-10.1667,123.5833,297.47,100,100,1.54,ID,1680973557
475,surt,31.2089,16.5887,289.59,72,34,7.35,LY,1680973558
476,concepcion del oro,24.6333,-101.4167,291.58,44,21,1.86,MX,1680973558
477,areia branca,-4.9561,-37.1369,308.26,67,89,2.92,BR,1680973558
478,coihaique,-45.5752,-72.0662,287.12,35,20,2.57,CL,1680973559
479,saucillo,28.0167,-105.2833,293.78,40,0,1.99,MX,1680973559
480,katangli,51.7102,143.2326,268.86,94,100,6.56,RU,1680973559
481,takoradi,4.8845,-1.7554,302.48,70,86,6.57,GH,1680973560
482,litovko,49.2361,135.1742,272.47,82,99,1.61,RU,1680973563
483,mae ramat,16.984,98.5166,298.97,74,100,0.88,TH,1680973564
484,meiganga,6.5167,14.3,300.35,41,91,1.31,CM,1680973564
485,gazanjyk,39.2446,55.5154,296.33,22,41,6.54,TM,1680973564
486,lebork,54.5392,17.7501,283.66,91,100,2.72,PL,1680973564
487,ouahigouya,13.5828,-2.4216,309.89,15,99,5.0,BF,1680973564
488,nhulunbuy,-12.2333,136.7667,298.49,94,68,0.0,AU,1680973565
489,cartagena,10.3997,-75.5144,302.94,66,20,4.63,CO,1680973565
490,strangnas,59.3774,17.0312,284.14,70,35,1.75,SE,1680973312
491,dajal,29.5577,70.3762,302.01,15,9,1.75,PK,1680973567
492,kimbe,-5.5502,150.1429,297.21,95,100,0.9,PG,1680973567
493,tateyama,34.9833,139.8667,283.53,61,95,3.13,JP,1680973568
494,lufilufi,-13.8745,-171.5986,296.03,78,26,9.02,WS,1680973568
495,suntar,62.1444,117.6319,255.57,87,100,4.8,RU,1680973568
496,fort pierce,27.4467,-80.3256,304.3,64,0,7.72,US,1680973569
497,sile,41.1754,29.6133,284.02,68,67,1.79,TR,1680973569
498,broome,42.2506,-75.833,281.74,37,0,2.06,US,1680973570
499,hay river,60.8156,-115.7999,280.14,53,26,6.17,CA,1680973570
500,oshawa,43.9001,-78.8496,281.27,40,0,3.09,CA,1680973486
501,berlevag,70.8578,29.0864,275.12,80,100,9.77,NO,1680973570
502,port pirie,-33.1833,138.0167,288.99,63,66,3.56,AU,1680973570
503,coatzacoalcos,18.15,-94.4167,299.1,83,40,9.26,MX,1680973571
504,batagay,67.6333,134.6333,259.07,88,96,1.8,RU,1680973571
505,rudraprayag,30.2833,78.9833,291.67,42,0,1.91,IN,1680973571
506,bulgan,48.8125,103.5347,278.89,37,100,1.26,MN,1680973572
507,beloha,-25.1667,45.05,297.6,82,55,3.85,MG,1680973572
508,dumai,1.6833,101.45,297.01,94,73,0.81,ID,1680973572
509,jalu,29.0331,21.5482,298.26,28,16,2.58,LY,1680973573
510,canete,-37.8,-73.4,294.36,35,30,2.85,CL,1680973573
511,kalnibolotskaya,46.0058,40.4568,285.75,78,100,2.3,RU,1680973573
512,la libertad,-2.2333,-80.9,302.96,79,0,2.06,EC,1680973573
513,lam luk ka,13.9323,100.7494,302.13,68,20,3.6,TH,1680973574
514,tefe,-3.3542,-64.7114,299.21,94,100,4.63,BR,1680973574
515,pitimbu,-7.4706,-34.8086,304.48,69,88,4.56,BR,1680973574
516,irbeyskoye,55.6428,95.4522,265.94,83,91,2.81,RU,1680973574
517,kirakira,-10.4544,161.9205,299.75,84,17,2.62,SB,1680973574
518,tuatapere,-46.1333,167.6833,280.28,92,100,1.84,NZ,1680973575
519,kamaishi,39.2667,141.8833,277.29,76,86,4.41,JP,1680973575
520,vyartsilya,62.1764,30.693,274.54,92,100,1.15,RU,1680973575
521,barmer,25.75,71.3833,302.87,17,89,2.25,IN,1680973575
522,hirara,24.8,125.2833,292.07,55,100,5.14,JP,1680973576
523,luebo,-5.35,21.4167,295.19,97,100,2.24,CD,1680973576
524,antalaha,-14.9003,50.2788,297.76,90,91,2.81,MG,1680973576
525,san luis,-33.295,-66.3356,301.25,32,1,3.71,AR,1680973577
526,ust-maya,60.4167,134.5333,269.25,82,100,4.8,RU,1680973577
527,opotiki,-38.0833,177.2833,285.59,94,87,1.81,NZ,1680973577
528,almaznyy,48.0448,40.045,284.96,62,100,5.17,RU,1680973577
529,bilibino,68.0546,166.4372,242.85,90,4,2.2,RU,1680973578
530,grindavik,63.8424,-22.4338,282.41,81,40,13.38,IS,1680973578
531,baie-comeau,49.2168,-68.1489,268.97,42,40,6.17,CA,1680973578
532,ishigaki,24.3448,124.1572,290.22,63,75,4.12,JP,1680973578
533,aden,12.7794,45.0367,300.87,80,75,8.5,YE,1680973578
534,molnlycke,57.6589,12.1179,285.21,51,0,3.6,SE,1680973579
535,along,28.1667,94.7667,291.04,75,86,0.89,IN,1680973579
536,floresti,47.8933,28.3014,282.14,77,100,3.22,MD,1680973528
537,comodoro rivadavia,-45.8667,-67.5,293.07,14,0,7.72,AR,1680973579
538,kargasok,59.0556,80.8572,268.27,89,100,11.22,RU,1680973579
